{
"type": "FeatureCollection",
"name": "Bus stop",
"crs": { "type": "name", "properties": { "name": "urn:ogc:def:crs:OGC:1.3:CRS84" } },
"features": [
{ "type": "Feature", "properties": { "name": "Descartes", "bus": "yes" }, "geometry": { "type": "Point", "coordinates": [ 3.0507733, 36.7491739 ] } },
{ "type": "Feature", "properties": { "name": "1er Mai", "bus": "yes" }, "geometry": { "type": "Point", "coordinates": [ 3.0567062, 36.7600878 ] } },
{ "type": "Feature", "properties": { "name": "Cité Malki", "bus": "yes" }, "geometry": { "type": "Point", "coordinates": [ 3.0200279, 36.7537262 ] } },
{ "type": "Feature", "properties": { "name": null, "bus": "yes" }, "geometry": { "type": "Point", "coordinates": [ 3.0642932, 36.7467222 ] } },
{ "type": "Feature", "properties": { "name": "Bouzareah", "bus": "yes" }, "geometry": { "type": "Point", "coordinates": [ 3.0171987, 36.7901906 ] } },
{ "type": "Feature", "properties": { "name": "Basilique", "bus": "yes" }, "geometry": { "type": "Point", "coordinates": [ 3.0427484, 36.8004793 ] } },
{ "type": "Feature", "properties": { "name": "Seminaire", "bus": "yes" }, "geometry": { "type": "Point", "coordinates": [ 3.0360326, 36.802224 ] } },
{ "type": "Feature", "properties": { "name": "El Madania", "bus": "yes" }, "geometry": { "type": "Point", "coordinates": [ 3.0652571, 36.7422063 ] } },
{ "type": "Feature", "properties": { "name": "Sidi Mbarek El-Harrach", "bus": "yes" }, "geometry": { "type": "Point", "coordinates": [ 3.146186, 36.7169798 ] } },
{ "type": "Feature", "properties": { "name": "Copemad", "bus": null }, "geometry": { "type": "Point", "coordinates": [ 2.9049292, 36.7955339 ] } },
{ "type": "Feature", "properties": { "name": null, "bus": "yes" }, "geometry": { "type": "Point", "coordinates": [ 3.1867313, 36.7465737 ] } },
{ "type": "Feature", "properties": { "name": null, "bus": "yes" }, "geometry": { "type": "Point", "coordinates": [ 3.3383972, 36.7388402 ] } },
{ "type": "Feature", "properties": { "name": "STATION SERVICES Harraga", "bus": "yes" }, "geometry": { "type": "Point", "coordinates": [ 3.2500443, 36.7679206 ] } },
{ "type": "Feature", "properties": { "name": "Birtouta", "bus": "yes" }, "geometry": { "type": "Point", "coordinates": [ 2.999879, 36.6416916 ] } },
{ "type": "Feature", "properties": { "name": "قريدي 1", "bus": "yes" }, "geometry": { "type": "Point", "coordinates": [ 3.06952, 36.7289101 ] } },
{ "type": "Feature", "properties": { "name": "Cité 5 Juillet", "bus": null }, "geometry": { "type": "Point", "coordinates": [ 3.2018576, 36.7204389 ] } },
{ "type": "Feature", "properties": { "name": "Bologhine", "bus": "yes" }, "geometry": { "type": "Point", "coordinates": [ 3.0449041, 36.805132 ] } },
{ "type": "Feature", "properties": { "name": "PLATEAU - BOLOGHINE -", "bus": "yes" }, "geometry": { "type": "Point", "coordinates": [ 3.0390702, 36.8094936 ] } },
{ "type": "Feature", "properties": { "name": "Deux Moulins", "bus": null }, "geometry": { "type": "Point", "coordinates": [ 3.028961, 36.8116454 ] } },
{ "type": "Feature", "properties": { "name": "Stade de Bologhine", "bus": "yes" }, "geometry": { "type": "Point", "coordinates": [ 3.0485559, 36.8018799 ] } },
{ "type": "Feature", "properties": { "name": "Bab Ezzouar vers El-Harrach et Alger", "bus": "yes" }, "geometry": { "type": "Point", "coordinates": [ 3.1841522, 36.7261348 ] } },
{ "type": "Feature", "properties": { "name": "Souk El Fellah", "bus": "yes" }, "geometry": { "type": "Point", "coordinates": [ 3.1774523, 36.725552 ] } },
{ "type": "Feature", "properties": { "name": "5 Maisons", "bus": "yes" }, "geometry": { "type": "Point", "coordinates": [ 3.1468025, 36.7268807 ] } },
{ "type": "Feature", "properties": { "name": "Saïd Hamdine", "bus": "yes" }, "geometry": { "type": "Point", "coordinates": [ 3.0384684, 36.7336263 ] } },
{ "type": "Feature", "properties": { "name": "Saïd Hamdine", "bus": "yes" }, "geometry": { "type": "Point", "coordinates": [ 3.0359334, 36.7339831 ] } },
{ "type": "Feature", "properties": { "name": "Cité CNEP", "bus": "yes" }, "geometry": { "type": "Point", "coordinates": [ 3.0164142, 36.7712719 ] } },
{ "type": "Feature", "properties": { "name": "Chevalley", "bus": "yes" }, "geometry": { "type": "Point", "coordinates": [ 3.0069126, 36.7695091 ] } },
{ "type": "Feature", "properties": { "name": "فري فالون", "bus": "yes" }, "geometry": { "type": "Point", "coordinates": [ 3.0381987, 36.7784423 ] } },
{ "type": "Feature", "properties": { "name": "Les sources", "bus": "yes" }, "geometry": { "type": "Point", "coordinates": [ 3.0359185, 36.7749585 ] } },
{ "type": "Feature", "properties": { "name": "Garidi 2", "bus": "yes" }, "geometry": { "type": "Point", "coordinates": [ 3.0635654, 36.7332546 ] } },
{ "type": "Feature", "properties": { "name": "APC Kouba", "bus": "yes" }, "geometry": { "type": "Point", "coordinates": [ 3.0869116, 36.7339209 ] } },
{ "type": "Feature", "properties": { "name": null, "bus": "yes" }, "geometry": { "type": "Point", "coordinates": [ 2.95229, 36.6766361 ] } },
{ "type": "Feature", "properties": { "name": "Place El Qos", "bus": "yes" }, "geometry": { "type": "Point", "coordinates": [ 3.0402566, 36.7475776 ] } },
{ "type": "Feature", "properties": { "name": "Cité Maya", "bus": "yes" }, "geometry": { "type": "Point", "coordinates": [ 3.1029914, 36.7301762 ] } },
{ "type": "Feature", "properties": { "name": "Naamoune El Amri", "bus": "yes" }, "geometry": { "type": "Point", "coordinates": [ 2.9237737, 36.6859235 ] } },
{ "type": "Feature", "properties": { "name": null, "bus": "yes" }, "geometry": { "type": "Point", "coordinates": [ 3.1525683, 36.7140386 ] } },
{ "type": "Feature", "properties": { "name": "Scala", "bus": "yes" }, "geometry": { "type": "Point", "coordinates": [ 3.0423981, 36.7744406 ] } },
{ "type": "Feature", "properties": { "name": "Saint Raphaël", "bus": "yes" }, "geometry": { "type": "Point", "coordinates": [ 3.0372229, 36.7702695 ] } },
{ "type": "Feature", "properties": { "name": "Saint Raphaël", "bus": "yes" }, "geometry": { "type": "Point", "coordinates": [ 3.0366562, 36.7701529 ] } },
{ "type": "Feature", "properties": { "name": "Châteauneuf", "bus": "yes" }, "geometry": { "type": "Point", "coordinates": [ 3.0215821, 36.7688724 ] } },
{ "type": "Feature", "properties": { "name": "Chateauneuf", "bus": "yes" }, "geometry": { "type": "Point", "coordinates": [ 3.0215808, 36.7686696 ] } },
{ "type": "Feature", "properties": { "name": "Centre", "bus": "yes" }, "geometry": { "type": "Point", "coordinates": [ 3.0268285, 36.7693622 ] } },
{ "type": "Feature", "properties": { "name": "APC", "bus": "yes" }, "geometry": { "type": "Point", "coordinates": [ 3.0090187, 36.7593664 ] } },
{ "type": "Feature", "properties": { "name": "Mokrani 1", "bus": "yes" }, "geometry": { "type": "Point", "coordinates": [ 3.0081672, 36.7560884 ] } },
{ "type": "Feature", "properties": { "name": "El Biar Stade", "bus": "yes" }, "geometry": { "type": "Point", "coordinates": [ 3.022887, 36.7644625 ] } },
{ "type": "Feature", "properties": { "name": "FORT L'EMPREUR", "bus": "yes" }, "geometry": { "type": "Point", "coordinates": [ 3.0448852, 36.7740202 ] } },
{ "type": "Feature", "properties": { "name": "El Aourassi", "bus": "yes" }, "geometry": { "type": "Point", "coordinates": [ 3.0485798, 36.776565 ] } },
{ "type": "Feature", "properties": { "name": "نفق الكليات", "bus": "yes" }, "geometry": { "type": "Point", "coordinates": [ 3.0556569, 36.7716999 ] } },
{ "type": "Feature", "properties": { "name": "Gare Routière", "bus": "yes" }, "geometry": { "type": "Point", "coordinates": [ 3.1092389, 36.7430507 ] } },
{ "type": "Feature", "properties": { "name": null, "bus": "yes" }, "geometry": { "type": "Point", "coordinates": [ 3.0147589, 36.7509624 ] } },
{ "type": "Feature", "properties": { "name": "PLACE AL SMAA", "bus": "yes" }, "geometry": { "type": "Point", "coordinates": [ 3.0420933, 36.7432605 ] } },
{ "type": "Feature", "properties": { "name": "HUSSEIN DEY (ALN)", "bus": "yes" }, "geometry": { "type": "Point", "coordinates": [ 3.0886736, 36.7474126 ] } },
{ "type": "Feature", "properties": { "name": "Aïn Allah", "bus": "yes" }, "geometry": { "type": "Point", "coordinates": [ 2.9916943, 36.7507099 ] } },
{ "type": "Feature", "properties": { "name": "HAÏ EL BINA", "bus": "yes" }, "geometry": { "type": "Point", "coordinates": [ 2.9872446, 36.7602395 ] } },
{ "type": "Feature", "properties": { "name": "Bois des Cars", "bus": "yes" }, "geometry": { "type": "Point", "coordinates": [ 2.9817475, 36.7542227 ] } },
{ "type": "Feature", "properties": { "name": "Fédération Algérienne du Football", "bus": "yes" }, "geometry": { "type": "Point", "coordinates": [ 2.9931297, 36.7622756 ] } },
{ "type": "Feature", "properties": { "name": "La faculté", "bus": "yes" }, "geometry": { "type": "Point", "coordinates": [ 2.9813437, 36.7580284 ] } },
{ "type": "Feature", "properties": { "name": "Sonacome", "bus": "yes" }, "geometry": { "type": "Point", "coordinates": [ 2.993293, 36.7694774 ] } },
{ "type": "Feature", "properties": { "name": "RUE AHMED OUAKED", "bus": "yes" }, "geometry": { "type": "Point", "coordinates": [ 2.9929577, 36.7656158 ] } },
{ "type": "Feature", "properties": { "name": "FEDERATION ALGERIENNE DU FOOTBALL", "bus": "yes" }, "geometry": { "type": "Point", "coordinates": [ 2.9923654, 36.7618014 ] } },
{ "type": "Feature", "properties": { "name": "Station de bus chevalley", "bus": "yes" }, "geometry": { "type": "Point", "coordinates": [ 3.0069709, 36.7694856 ] } },
{ "type": "Feature", "properties": { "name": "bois des cars", "bus": "yes" }, "geometry": { "type": "Point", "coordinates": [ 2.981777, 36.7538165 ] } },
{ "type": "Feature", "properties": { "name": "UNIVERSITE DELY BRAHIM", "bus": "yes" }, "geometry": { "type": "Point", "coordinates": [ 2.982055, 36.7582445 ] } },
{ "type": "Feature", "properties": { "name": "Aïn Allah", "bus": "yes" }, "geometry": { "type": "Point", "coordinates": [ 2.9905764, 36.7520296 ] } },
{ "type": "Feature", "properties": { "name": "Baba Ali", "bus": null }, "geometry": { "type": "Point", "coordinates": [ 3.0493111, 36.6722519 ] } },
{ "type": "Feature", "properties": { "name": "LES PINS EL BIAR", "bus": "yes" }, "geometry": { "type": "Point", "coordinates": [ 3.0308799, 36.7673908 ] } },
{ "type": "Feature", "properties": { "name": "INFORBA", "bus": null }, "geometry": { "type": "Point", "coordinates": [ 3.2728377, 36.7352982 ] } },
{ "type": "Feature", "properties": { "name": "ITFC", "bus": "yes" }, "geometry": { "type": "Point", "coordinates": [ 3.013823, 36.7513731 ] } },
{ "type": "Feature", "properties": { "name": "Mokrani 1", "bus": "yes" }, "geometry": { "type": "Point", "coordinates": [ 3.0085616, 36.7563696 ] } },
{ "type": "Feature", "properties": { "name": "Chevalley", "bus": "yes" }, "geometry": { "type": "Point", "coordinates": [ 3.0098138, 36.7689707 ] } },
{ "type": "Feature", "properties": { "name": "Chevalley", "bus": "yes" }, "geometry": { "type": "Point", "coordinates": [ 3.0100116, 36.7689589 ] } },
{ "type": "Feature", "properties": { "name": null, "bus": "yes" }, "geometry": { "type": "Point", "coordinates": [ 2.9931307, 36.7560584 ] } },
{ "type": "Feature", "properties": { "name": null, "bus": "yes" }, "geometry": { "type": "Point", "coordinates": [ 2.9928447, 36.7559975 ] } },
{ "type": "Feature", "properties": { "name": null, "bus": "yes" }, "geometry": { "type": "Point", "coordinates": [ 3.0963527, 36.7408189 ] } },
{ "type": "Feature", "properties": { "name": null, "bus": "yes" }, "geometry": { "type": "Point", "coordinates": [ 3.3488559, 36.7389693 ] } },
{ "type": "Feature", "properties": { "name": "La Côte", "bus": "yes" }, "geometry": { "type": "Point", "coordinates": [ 3.0481694, 36.7306943 ] } },
{ "type": "Feature", "properties": { "name": "Barreaux rouges", "bus": "yes" }, "geometry": { "type": "Point", "coordinates": [ 3.0471329, 36.7812508 ] } },
{ "type": "Feature", "properties": { "name": "Raïs Hamidou 2", "bus": "yes" }, "geometry": { "type": "Point", "coordinates": [ 3.0096051, 36.8171696 ] } },
{ "type": "Feature", "properties": { "name": "Vieux Kouba", "bus": "yes" }, "geometry": { "type": "Point", "coordinates": [ 3.0750519, 36.7296189 ] } },
{ "type": "Feature", "properties": { "name": "Cité 5 juillet", "bus": "yes" }, "geometry": { "type": "Point", "coordinates": [ 3.1832005, 36.7214243 ] } },
{ "type": "Feature", "properties": { "name": "RESIDECE", "bus": "yes" }, "geometry": { "type": "Point", "coordinates": [ 3.091747, 36.7394529 ] } },
{ "type": "Feature", "properties": { "name": null, "bus": "yes" }, "geometry": { "type": "Point", "coordinates": [ 3.1350406, 36.7247334 ] } },
{ "type": "Feature", "properties": { "name": null, "bus": "yes" }, "geometry": { "type": "Point", "coordinates": [ 3.1331302, 36.7217623 ] } },
{ "type": "Feature", "properties": { "name": "Emiliano Zapata", "bus": "yes" }, "geometry": { "type": "Point", "coordinates": [ 3.0862387, 36.7427208 ] } },
{ "type": "Feature", "properties": { "name": "Kharouba", "bus": "yes" }, "geometry": { "type": "Point", "coordinates": [ 3.1204306, 36.7346221 ] } },
{ "type": "Feature", "properties": { "name": "ETUSA El Harrach", "bus": "yes" }, "geometry": { "type": "Point", "coordinates": [ 3.1359499, 36.7215731 ] } },
{ "type": "Feature", "properties": { "name": "CAROUBIER - CENTRE EQUESTRE -", "bus": "yes" }, "geometry": { "type": "Point", "coordinates": [ 3.1170698, 36.73649 ] } },
{ "type": "Feature", "properties": { "name": "Djenan Mabrouk", "bus": "yes" }, "geometry": { "type": "Point", "coordinates": [ 3.1259713, 36.7233478 ] } },
{ "type": "Feature", "properties": { "name": "Djenan Mabrouk", "bus": "yes" }, "geometry": { "type": "Point", "coordinates": [ 3.1258171, 36.7231938 ] } },
{ "type": "Feature", "properties": { "name": "Arret Evolutif", "bus": "yes" }, "geometry": { "type": "Point", "coordinates": [ 3.1236926, 36.722938 ] } },
{ "type": "Feature", "properties": { "name": "Bachdjarah la Poste", "bus": "yes" }, "geometry": { "type": "Point", "coordinates": [ 3.1196413, 36.7220532 ] } },
{ "type": "Feature", "properties": { "name": "La montagne", "bus": "yes" }, "geometry": { "type": "Point", "coordinates": [ 3.1150137, 36.7094276 ] } },
{ "type": "Feature", "properties": { "name": null, "bus": "yes" }, "geometry": { "type": "Point", "coordinates": [ 3.1331826, 36.7220485 ] } },
{ "type": "Feature", "properties": { "name": null, "bus": null }, "geometry": { "type": "Point", "coordinates": [ 3.275331, 36.7353675 ] } },
{ "type": "Feature", "properties": { "name": "Sidi Hacene", "bus": "yes" }, "geometry": { "type": "Point", "coordinates": [ 2.9373481, 36.7694896 ] } },
{ "type": "Feature", "properties": { "name": "Carnot", "bus": "yes" }, "geometry": { "type": "Point", "coordinates": [ 3.0244779, 36.7729125 ] } },
{ "type": "Feature", "properties": { "name": "Carnot", "bus": "yes" }, "geometry": { "type": "Point", "coordinates": [ 3.0221353, 36.7729627 ] } },
{ "type": "Feature", "properties": { "name": "Les Sources", "bus": "yes" }, "geometry": { "type": "Point", "coordinates": [ 3.035764, 36.7744373 ] } },
{ "type": "Feature", "properties": { "name": "فري فالون", "bus": "yes" }, "geometry": { "type": "Point", "coordinates": [ 3.0386341, 36.7783984 ] } },
{ "type": "Feature", "properties": { "name": "Les Pompiers", "bus": "yes" }, "geometry": { "type": "Point", "coordinates": [ 3.0407228, 36.7815973 ] } },
{ "type": "Feature", "properties": { "name": "Robert", "bus": "yes" }, "geometry": { "type": "Point", "coordinates": [ 3.0255768, 36.775005 ] } },
{ "type": "Feature", "properties": { "name": "جسر كارنو", "bus": "yes" }, "geometry": { "type": "Point", "coordinates": [ 3.0244898, 36.7721951 ] } },
{ "type": "Feature", "properties": { "name": "Louni Arezki", "bus": "yes" }, "geometry": { "type": "Point", "coordinates": [ 3.0569842, 36.7892079 ] } },
{ "type": "Feature", "properties": { "name": "Quatre saisons", "bus": "yes" }, "geometry": { "type": "Point", "coordinates": [ 3.0163329, 36.7801675 ] } },
{ "type": "Feature", "properties": { "name": "Quatre saisons", "bus": "yes" }, "geometry": { "type": "Point", "coordinates": [ 3.0163108, 36.7800797 ] } },
{ "type": "Feature", "properties": { "name": "برانيس بوزريعة", "bus": "yes" }, "geometry": { "type": "Point", "coordinates": [ 3.0161715, 36.7772205 ] } },
{ "type": "Feature", "properties": { "name": "baranes Teryouli", "bus": "yes" }, "geometry": { "type": "Point", "coordinates": [ 3.0164924, 36.7767262 ] } },
{ "type": "Feature", "properties": { "name": "La Bruyère", "bus": "yes" }, "geometry": { "type": "Point", "coordinates": [ 3.0210169, 36.7753348 ] } },
{ "type": "Feature", "properties": { "name": "La Bruyère", "bus": "yes" }, "geometry": { "type": "Point", "coordinates": [ 3.0212434, 36.7752958 ] } },
{ "type": "Feature", "properties": { "name": "Petit Bois", "bus": "yes" }, "geometry": { "type": "Point", "coordinates": [ 3.0161225, 36.7841088 ] } },
{ "type": "Feature", "properties": { "name": "Petit Bois", "bus": "yes" }, "geometry": { "type": "Point", "coordinates": [ 3.0159359, 36.7835674 ] } },
{ "type": "Feature", "properties": { "name": "Bouzareah Etusa Depart", "bus": "yes" }, "geometry": { "type": "Point", "coordinates": [ 3.0173865, 36.7899813 ] } },
{ "type": "Feature", "properties": { "name": "El Alia", "bus": "yes" }, "geometry": { "type": "Point", "coordinates": [ 3.0168157, 36.7875568 ] } },
{ "type": "Feature", "properties": { "name": "El Alia", "bus": "yes" }, "geometry": { "type": "Point", "coordinates": [ 3.0169318, 36.7874676 ] } },
{ "type": "Feature", "properties": { "name": null, "bus": "yes" }, "geometry": { "type": "Point", "coordinates": [ 3.013711, 36.7588817 ] } },
{ "type": "Feature", "properties": { "name": null, "bus": "yes" }, "geometry": { "type": "Point", "coordinates": [ 3.0171516, 36.7549591 ] } },
{ "type": "Feature", "properties": { "name": "AHMED GHERMOUL", "bus": "yes" }, "geometry": { "type": "Point", "coordinates": [ 3.046747, 36.7615311 ] } },
{ "type": "Feature", "properties": { "name": "Place des Martyrs", "bus": "yes" }, "geometry": { "type": "Point", "coordinates": [ 3.0630673, 36.7856877 ] } },
{ "type": "Feature", "properties": { "name": "Square Port Said", "bus": "yes" }, "geometry": { "type": "Point", "coordinates": [ 3.0628125, 36.7804751 ] } },
{ "type": "Feature", "properties": { "name": "Square Port Said", "bus": "yes" }, "geometry": { "type": "Point", "coordinates": [ 3.0624263, 36.7806672 ] } },
{ "type": "Feature", "properties": { "name": "\"la côte\"", "bus": "yes" }, "geometry": { "type": "Point", "coordinates": [ 3.0445076, 36.7274199 ] } },
{ "type": "Feature", "properties": { "name": "Arrêt transport universitaire", "bus": "yes" }, "geometry": { "type": "Point", "coordinates": [ 3.0472255, 36.7897832 ] } },
{ "type": "Feature", "properties": { "name": null, "bus": "yes" }, "geometry": { "type": "Point", "coordinates": [ 2.9693507, 36.6973944 ] } },
{ "type": "Feature", "properties": { "name": "Pompe à essence", "bus": "yes" }, "geometry": { "type": "Point", "coordinates": [ 2.9903632, 36.7249059 ] } },
{ "type": "Feature", "properties": { "name": "El Idrissi", "bus": "yes" }, "geometry": { "type": "Point", "coordinates": [ 3.0295896, 36.7735072 ] } },
{ "type": "Feature", "properties": { "name": "HOTEL LE BEAU FAYET", "bus": null }, "geometry": { "type": "Point", "coordinates": [ 2.9240734, 36.7330679 ] } },
{ "type": "Feature", "properties": { "name": null, "bus": "yes" }, "geometry": { "type": "Point", "coordinates": [ 2.8438151, 36.7621691 ] } },
{ "type": "Feature", "properties": { "name": null, "bus": "yes" }, "geometry": { "type": "Point", "coordinates": [ 2.8460186, 36.759811 ] } },
{ "type": "Feature", "properties": { "name": "Bir Mourad Raïs", "bus": "yes" }, "geometry": { "type": "Point", "coordinates": [ 3.0495878, 36.7401644 ] } },
{ "type": "Feature", "properties": { "name": "BIR MOURAD RAIS", "bus": "yes" }, "geometry": { "type": "Point", "coordinates": [ 3.0484854, 36.7372386 ] } },
{ "type": "Feature", "properties": { "name": "Stade Mohamed Iguer", "bus": "yes" }, "geometry": { "type": "Point", "coordinates": [ 3.048749, 36.7348431 ] } },
{ "type": "Feature", "properties": { "name": "STADE MOHAMED IGUER", "bus": "yes" }, "geometry": { "type": "Point", "coordinates": [ 3.0489204, 36.734842 ] } },
{ "type": "Feature", "properties": { "name": "Boulevard Bougara", "bus": "yes" }, "geometry": { "type": "Point", "coordinates": [ 3.0359492, 36.7665711 ] } },
{ "type": "Feature", "properties": { "name": "École Mohamed Baaziz", "bus": "yes" }, "geometry": { "type": "Point", "coordinates": [ 3.0158167, 36.7891841 ] } },
{ "type": "Feature", "properties": { "name": "قريدي 1", "bus": "yes" }, "geometry": { "type": "Point", "coordinates": [ 3.0687316, 36.7295234 ] } },
{ "type": "Feature", "properties": { "name": "موقف حافلات", "bus": "yes" }, "geometry": { "type": "Point", "coordinates": [ 3.0718588, 36.7277922 ] } },
{ "type": "Feature", "properties": { "name": "Les Sources", "bus": "yes" }, "geometry": { "type": "Point", "coordinates": [ 3.0543032, 36.7323648 ] } },
{ "type": "Feature", "properties": { "name": "Horizons Bleus", "bus": "yes" }, "geometry": { "type": "Point", "coordinates": [ 3.0019042, 36.8157551 ] } },
{ "type": "Feature", "properties": { "name": "Bains Romains", "bus": "yes" }, "geometry": { "type": "Point", "coordinates": [ 2.9910304, 36.8133567 ] } },
{ "type": "Feature", "properties": { "name": "La mosqué", "bus": "yes" }, "geometry": { "type": "Point", "coordinates": [ 3.054782, 36.6953267 ] } },
{ "type": "Feature", "properties": { "name": "La mosqué", "bus": "yes" }, "geometry": { "type": "Point", "coordinates": [ 3.0546125, 36.695261 ] } },
{ "type": "Feature", "properties": { "name": "Oued El Karma", "bus": "yes" }, "geometry": { "type": "Point", "coordinates": [ 3.0647103, 36.6837391 ] } },
{ "type": "Feature", "properties": { "name": null, "bus": "yes" }, "geometry": { "type": "Point", "coordinates": [ 3.0688173, 36.7024554 ] } },
{ "type": "Feature", "properties": { "name": null, "bus": "yes" }, "geometry": { "type": "Point", "coordinates": [ 3.0963874, 36.7205574 ] } },
{ "type": "Feature", "properties": { "name": "Oued Kniss", "bus": "yes" }, "geometry": { "type": "Point", "coordinates": [ 3.081048, 36.7412743 ] } },
{ "type": "Feature", "properties": { "name": "El Annasser 1", "bus": "yes" }, "geometry": { "type": "Point", "coordinates": [ 3.0847254, 36.7407406 ] } },
{ "type": "Feature", "properties": { "name": "Oued Ouedkniss", "bus": "yes" }, "geometry": { "type": "Point", "coordinates": [ 3.0843862, 36.7411383 ] } },
{ "type": "Feature", "properties": { "name": null, "bus": "yes" }, "geometry": { "type": "Point", "coordinates": [ 3.0310962, 36.7242219 ] } },
{ "type": "Feature", "properties": { "name": "AHMED GHERMOUL", "bus": "yes" }, "geometry": { "type": "Point", "coordinates": [ 3.0466513, 36.7612857 ] } },
{ "type": "Feature", "properties": { "name": "APC Kouba", "bus": "yes" }, "geometry": { "type": "Point", "coordinates": [ 3.0866967, 36.7340065 ] } },
{ "type": "Feature", "properties": { "name": "Calvaire", "bus": "yes" }, "geometry": { "type": "Point", "coordinates": [ 3.0915342, 36.737166 ] } },
{ "type": "Feature", "properties": { "name": "Calvaire", "bus": "yes" }, "geometry": { "type": "Point", "coordinates": [ 3.0914242, 36.737094 ] } },
{ "type": "Feature", "properties": { "name": "Oasis", "bus": "yes" }, "geometry": { "type": "Point", "coordinates": [ 3.0885435, 36.7391081 ] } },
{ "type": "Feature", "properties": { "name": "Oasis", "bus": "yes" }, "geometry": { "type": "Point", "coordinates": [ 3.0882136, 36.739064 ] } },
{ "type": "Feature", "properties": { "name": null, "bus": "yes" }, "geometry": { "type": "Point", "coordinates": [ 3.0545525, 36.7509133 ] } },
{ "type": "Feature", "properties": { "name": "El Mouradia", "bus": "yes" }, "geometry": { "type": "Point", "coordinates": [ 3.0508147, 36.747648 ] } },
{ "type": "Feature", "properties": { "name": "Arrêt de bus 2ème arrêt", "bus": "yes" }, "geometry": { "type": "Point", "coordinates": [ 3.0767936, 36.7047762 ] } },
{ "type": "Feature", "properties": { "name": null, "bus": "yes" }, "geometry": { "type": "Point", "coordinates": [ 3.1531117, 36.7127218 ] } },
{ "type": "Feature", "properties": { "name": null, "bus": "yes" }, "geometry": { "type": "Point", "coordinates": [ 3.1596885, 36.7095567 ] } },
{ "type": "Feature", "properties": { "name": null, "bus": "yes" }, "geometry": { "type": "Point", "coordinates": [ 3.1568787, 36.7106562 ] } },
{ "type": "Feature", "properties": { "name": null, "bus": "yes" }, "geometry": { "type": "Point", "coordinates": [ 3.1672223, 36.7074206 ] } },
{ "type": "Feature", "properties": { "name": null, "bus": "yes" }, "geometry": { "type": "Point", "coordinates": [ 3.1673409, 36.7054775 ] } },
{ "type": "Feature", "properties": { "name": null, "bus": "yes" }, "geometry": { "type": "Point", "coordinates": [ 3.1639908, 36.7076214 ] } },
{ "type": "Feature", "properties": { "name": null, "bus": "yes" }, "geometry": { "type": "Point", "coordinates": [ 3.1675715, 36.7053399 ] } },
{ "type": "Feature", "properties": { "name": "Scala", "bus": "yes" }, "geometry": { "type": "Point", "coordinates": [ 3.0422832, 36.7745426 ] } },
{ "type": "Feature", "properties": { "name": "Colonne Voirol", "bus": "yes" }, "geometry": { "type": "Point", "coordinates": [ 3.0418146, 36.7512983 ] } },
{ "type": "Feature", "properties": { "name": "Place du 11 Décembre", "bus": "yes" }, "geometry": { "type": "Point", "coordinates": [ 3.0624674, 36.7521461 ] } },
{ "type": "Feature", "properties": { "name": "Frères Hameche", "bus": "yes" }, "geometry": { "type": "Point", "coordinates": [ 3.0246647, 36.7689786 ] } },
{ "type": "Feature", "properties": { "name": "Station Crous", "bus": "yes" }, "geometry": { "type": "Point", "coordinates": [ 3.0547759, 36.7607666 ] } },
{ "type": "Feature", "properties": { "name": "Louni Arezki", "bus": "yes" }, "geometry": { "type": "Point", "coordinates": [ 3.0576728, 36.7896371 ] } },
{ "type": "Feature", "properties": { "name": "بلوطة", "bus": "yes" }, "geometry": { "type": "Point", "coordinates": [ 2.8921392, 36.7277873 ] } },
{ "type": "Feature", "properties": { "name": "CITE MAYA", "bus": "yes" }, "geometry": { "type": "Point", "coordinates": [ 3.1039246, 36.7312338 ] } },
{ "type": "Feature", "properties": { "name": null, "bus": "yes" }, "geometry": { "type": "Point", "coordinates": [ 2.941888, 36.6306971 ] } },
{ "type": "Feature", "properties": { "name": "Les Ateliers", "bus": "yes" }, "geometry": { "type": "Point", "coordinates": [ 3.0663331, 36.7565028 ] } },
{ "type": "Feature", "properties": { "name": null, "bus": "yes" }, "geometry": { "type": "Point", "coordinates": [ 3.1994337, 36.746732 ] } },
{ "type": "Feature", "properties": { "name": "Bel Air - La Glacière", "bus": "yes" }, "geometry": { "type": "Point", "coordinates": [ 3.124167, 36.7335103 ] } },
{ "type": "Feature", "properties": { "name": "CAROBIER GARE ROUTIERE", "bus": "yes" }, "geometry": { "type": "Point", "coordinates": [ 3.1059483, 36.7426329 ] } },
{ "type": "Feature", "properties": { "name": "PONT DES FUSILLES", "bus": "yes" }, "geometry": { "type": "Point", "coordinates": [ 3.0915811, 36.7467313 ] } },
{ "type": "Feature", "properties": { "name": null, "bus": "yes" }, "geometry": { "type": "Point", "coordinates": [ 3.0323713, 36.7616768 ] } },
{ "type": "Feature", "properties": { "name": "EL HAMIZ COMMISSARIAT DE POLICE", "bus": null }, "geometry": { "type": "Point", "coordinates": [ 3.2292131, 36.7298087 ] } },
{ "type": "Feature", "properties": { "name": null, "bus": "yes" }, "geometry": { "type": "Point", "coordinates": [ 2.8530345, 36.7411723 ] } },
{ "type": "Feature", "properties": { "name": "MOUAÏCIA", "bus": "yes" }, "geometry": { "type": "Point", "coordinates": [ 3.2709407, 36.6980858 ] } },
{ "type": "Feature", "properties": { "name": "MOUAÏCIA", "bus": "yes" }, "geometry": { "type": "Point", "coordinates": [ 3.2708709, 36.6979632 ] } },
{ "type": "Feature", "properties": { "name": null, "bus": "yes" }, "geometry": { "type": "Point", "coordinates": [ 2.9258175, 36.7023276 ] } },
{ "type": "Feature", "properties": { "name": null, "bus": "yes" }, "geometry": { "type": "Point", "coordinates": [ 2.9949166, 36.7483725 ] } },
{ "type": "Feature", "properties": { "name": "SNTP", "bus": null }, "geometry": { "type": "Point", "coordinates": [ 3.2177214, 36.7281187 ] } },
{ "type": "Feature", "properties": { "name": null, "bus": "yes" }, "geometry": { "type": "Point", "coordinates": [ 2.9190668, 36.7250942 ] } },
{ "type": "Feature", "properties": { "name": "HOTEL LE BEAU FAYET", "bus": "yes" }, "geometry": { "type": "Point", "coordinates": [ 2.9236384, 36.7324064 ] } },
{ "type": "Feature", "properties": { "name": "CNR", "bus": "yes" }, "geometry": { "type": "Point", "coordinates": [ 3.0425444, 36.7584988 ] } },
{ "type": "Feature", "properties": { "name": "Jardin Tunis", "bus": "yes" }, "geometry": { "type": "Point", "coordinates": [ 3.0394389, 36.7651353 ] } },
{ "type": "Feature", "properties": { "name": "Place des Martyrs", "bus": "yes" }, "geometry": { "type": "Point", "coordinates": [ 3.0620643, 36.7844177 ] } },
{ "type": "Feature", "properties": { "name": "El Merdja", "bus": null }, "geometry": { "type": "Point", "coordinates": [ 3.2000163, 36.7257846 ] } },
{ "type": "Feature", "properties": { "name": "Hamma", "bus": "yes" }, "geometry": { "type": "Point", "coordinates": [ 3.0691024, 36.7485083 ] } },
{ "type": "Feature", "properties": { "name": "الحميز", "bus": "yes" }, "geometry": { "type": "Point", "coordinates": [ 3.240739, 36.7310334 ] } },
{ "type": "Feature", "properties": { "name": "EL HAMIZ CITE EN-NASR", "bus": null }, "geometry": { "type": "Point", "coordinates": [ 3.2471982, 36.7318234 ] } },
{ "type": "Feature", "properties": { "name": "El Annasser", "bus": "yes" }, "geometry": { "type": "Point", "coordinates": [ 3.0887339, 36.7439709 ] } },
{ "type": "Feature", "properties": { "name": "Robert", "bus": "yes" }, "geometry": { "type": "Point", "coordinates": [ 3.0251355, 36.7748918 ] } },
{ "type": "Feature", "properties": { "name": "El Idrissi", "bus": "yes" }, "geometry": { "type": "Point", "coordinates": [ 3.0295261, 36.7735505 ] } },
{ "type": "Feature", "properties": { "name": "Chevalley", "bus": "yes" }, "geometry": { "type": "Point", "coordinates": [ 3.0086703, 36.7688411 ] } },
{ "type": "Feature", "properties": { "name": "Re maison", "bus": "yes" }, "geometry": { "type": "Point", "coordinates": [ 3.050963, 36.7880904 ] } },
{ "type": "Feature", "properties": { "name": "Oukba", "bus": "yes" }, "geometry": { "type": "Point", "coordinates": [ 3.056024, 36.7890737 ] } },
{ "type": "Feature", "properties": { "name": "LYCEE OKBA", "bus": "yes" }, "geometry": { "type": "Point", "coordinates": [ 3.0587157, 36.7896396 ] } },
{ "type": "Feature", "properties": { "name": "Bab El Oued", "bus": "yes" }, "geometry": { "type": "Point", "coordinates": [ 3.0544314, 36.789877 ] } },
{ "type": "Feature", "properties": { "name": "Re maison", "bus": "yes" }, "geometry": { "type": "Point", "coordinates": [ 3.0511601, 36.7891506 ] } },
{ "type": "Feature", "properties": { "name": "Maillot", "bus": "yes" }, "geometry": { "type": "Point", "coordinates": [ 3.0497085, 36.7929991 ] } },
{ "type": "Feature", "properties": { "name": "Carnot", "bus": "yes" }, "geometry": { "type": "Point", "coordinates": [ 3.0247702, 36.7734703 ] } },
{ "type": "Feature", "properties": { "name": "BEAUX ARTS", "bus": "yes" }, "geometry": { "type": "Point", "coordinates": [ 3.0451139, 36.761973 ] } },
{ "type": "Feature", "properties": { "name": "SNTP", "bus": null }, "geometry": { "type": "Point", "coordinates": [ 3.2176019, 36.7282939 ] } },
{ "type": "Feature", "properties": { "name": null, "bus": "yes" }, "geometry": { "type": "Point", "coordinates": [ 3.0475998, 36.7621415 ] } },
{ "type": "Feature", "properties": { "name": "El Idrissi", "bus": "yes" }, "geometry": { "type": "Point", "coordinates": [ 3.0295871, 36.7734614 ] } },
{ "type": "Feature", "properties": { "name": null, "bus": "yes" }, "geometry": { "type": "Point", "coordinates": [ 3.0969466, 36.7140003 ] } },
{ "type": "Feature", "properties": { "name": "arrêt les Quatre Chemins", "bus": "yes" }, "geometry": { "type": "Point", "coordinates": [ 3.0948659, 36.7140208 ] } },
{ "type": "Feature", "properties": { "name": "Quatre Chemins", "bus": "yes" }, "geometry": { "type": "Point", "coordinates": [ 3.0926723, 36.7152068 ] } },
{ "type": "Feature", "properties": { "name": "Fac de Traduction", "bus": "yes" }, "geometry": { "type": "Point", "coordinates": [ 3.0141704, 36.7640079 ] } },
{ "type": "Feature", "properties": { "name": null, "bus": "yes" }, "geometry": { "type": "Point", "coordinates": [ 3.0610905, 36.7746526 ] } },
{ "type": "Feature", "properties": { "name": null, "bus": "yes" }, "geometry": { "type": "Point", "coordinates": [ 3.0616896, 36.7742919 ] } },
{ "type": "Feature", "properties": { "name": "Cité Police", "bus": "yes" }, "geometry": { "type": "Point", "coordinates": [ 2.8263008, 36.6939331 ] } },
{ "type": "Feature", "properties": { "name": "Jardin d'Essai", "bus": "yes" }, "geometry": { "type": "Point", "coordinates": [ 3.0763367, 36.7508755 ] } },
{ "type": "Feature", "properties": { "name": "Les Halles", "bus": "yes" }, "geometry": { "type": "Point", "coordinates": [ 3.0664238, 36.7551088 ] } },
{ "type": "Feature", "properties": { "name": "PARC TIFARTI", "bus": "yes" }, "geometry": { "type": "Point", "coordinates": [ 3.044157, 36.7643744 ] } },
{ "type": "Feature", "properties": { "name": "LES ATELIERS", "bus": "yes" }, "geometry": { "type": "Point", "coordinates": [ 3.070608, 36.7521467 ] } },
{ "type": "Feature", "properties": { "name": "HÔPITAL MILITAIRE", "bus": "yes" }, "geometry": { "type": "Point", "coordinates": [ 3.0647142, 36.7230905 ] } },
{ "type": "Feature", "properties": { "name": "Les Vergers 2", "bus": "yes" }, "geometry": { "type": "Point", "coordinates": [ 3.0500445, 36.7270979 ] } },
{ "type": "Feature", "properties": { "name": "Artizana", "bus": "yes" }, "geometry": { "type": "Point", "coordinates": [ 3.2324539, 36.7608689 ] } },
{ "type": "Feature", "properties": { "name": null, "bus": "yes" }, "geometry": { "type": "Point", "coordinates": [ 3.2134114, 36.7509331 ] } },
{ "type": "Feature", "properties": { "name": "El Biar", "bus": "yes" }, "geometry": { "type": "Point", "coordinates": [ 3.0325827, 36.7681031 ] } },
{ "type": "Feature", "properties": { "name": "CNR", "bus": "yes" }, "geometry": { "type": "Point", "coordinates": [ 3.0426527, 36.7585862 ] } },
{ "type": "Feature", "properties": { "name": "Arrêt de cous USTHB (CUB 4)", "bus": "yes" }, "geometry": { "type": "Point", "coordinates": [ 3.1893375, 36.7144183 ] } },
{ "type": "Feature", "properties": { "name": null, "bus": "yes" }, "geometry": { "type": "Point", "coordinates": [ 2.9184682, 36.6298001 ] } },
{ "type": "Feature", "properties": { "name": "1er Mai", "bus": "yes" }, "geometry": { "type": "Point", "coordinates": [ 3.0573406, 36.7606491 ] } },
{ "type": "Feature", "properties": { "name": "École Mohamed Baaziz", "bus": "yes" }, "geometry": { "type": "Point", "coordinates": [ 3.0131626, 36.7846081 ] } },
{ "type": "Feature", "properties": { "name": "Pascale", "bus": "yes" }, "geometry": { "type": "Point", "coordinates": [ 3.0108294, 36.7770374 ] } },
{ "type": "Feature", "properties": { "name": "مناخ فرنسا", "bus": "yes" }, "geometry": { "type": "Point", "coordinates": [ 3.0104214, 36.7801699 ] } },
{ "type": "Feature", "properties": { "name": "La Vigie", "bus": null }, "geometry": { "type": "Point", "coordinates": [ 3.021156, 36.8131221 ] } },
{ "type": "Feature", "properties": { "name": "Remilla B.E.O", "bus": "yes" }, "geometry": { "type": "Point", "coordinates": [ 3.0534053, 36.7949898 ] } },
{ "type": "Feature", "properties": { "name": "بلدية بولوغين", "bus": "yes" }, "geometry": { "type": "Point", "coordinates": [ 3.0437786, 36.8054893 ] } },
{ "type": "Feature", "properties": { "name": "La Vigie", "bus": "yes" }, "geometry": { "type": "Point", "coordinates": [ 3.0216298, 36.8124204 ] } },
{ "type": "Feature", "properties": { "name": "Stade de Bologhine", "bus": "yes" }, "geometry": { "type": "Point", "coordinates": [ 3.0483413, 36.801794 ] } },
{ "type": "Feature", "properties": { "name": "LA PERINE", "bus": "yes" }, "geometry": { "type": "Point", "coordinates": [ 3.0512699, 36.7580854 ] } },
{ "type": "Feature", "properties": { "name": "Varrefour Souidani Boudjemaa", "bus": "yes" }, "geometry": { "type": "Point", "coordinates": [ 3.0487601, 36.7524992 ] } },
{ "type": "Feature", "properties": { "name": "Port Saïd", "bus": "yes" }, "geometry": { "type": "Point", "coordinates": [ 3.0620708, 36.7808376 ] } },
{ "type": "Feature", "properties": { "name": "Atlas", "bus": "yes" }, "geometry": { "type": "Point", "coordinates": [ 3.059965, 36.7907702 ] } },
{ "type": "Feature", "properties": { "name": "Place Maurice Audin", "bus": "yes" }, "geometry": { "type": "Point", "coordinates": [ 3.0546351, 36.7687344 ] } },
{ "type": "Feature", "properties": { "name": "ميسونيي", "bus": "yes" }, "geometry": { "type": "Point", "coordinates": [ 3.0518058, 36.765986 ] } },
{ "type": "Feature", "properties": { "name": "COLONNE VOIROLE", "bus": "yes" }, "geometry": { "type": "Point", "coordinates": [ 3.0433445, 36.7538438 ] } },
{ "type": "Feature", "properties": { "name": "BD ABDRRAHMANE TALEB", "bus": "yes" }, "geometry": { "type": "Point", "coordinates": [ 3.0576947, 36.7907649 ] } },
{ "type": "Feature", "properties": { "name": "مستشفى بني مسوس", "bus": "yes" }, "geometry": { "type": "Point", "coordinates": [ 2.9836713, 36.78171 ] } },
{ "type": "Feature", "properties": { "name": "Cercle national de l'armée - 2 -", "bus": "yes" }, "geometry": { "type": "Point", "coordinates": [ 2.9935344, 36.7701177 ] } },
{ "type": "Feature", "properties": { "name": "Gare de l'Agha", "bus": "yes" }, "geometry": { "type": "Point", "coordinates": [ 3.0562587, 36.7679214 ] } },
{ "type": "Feature", "properties": { "name": "EL HAMIZ COMMISSARIAT DE POLICE", "bus": null }, "geometry": { "type": "Point", "coordinates": [ 3.2292681, 36.7296153 ] } },
{ "type": "Feature", "properties": { "name": null, "bus": null }, "geometry": { "type": "Point", "coordinates": [ 3.2486807, 36.8041134 ] } },
{ "type": "Feature", "properties": { "name": "La Pérouse n°1", "bus": "yes" }, "geometry": { "type": "Point", "coordinates": [ 3.2386976, 36.8048178 ] } },
{ "type": "Feature", "properties": { "name": "مسجد البشير الإبراهيمي", "bus": "yes" }, "geometry": { "type": "Point", "coordinates": [ 3.2501193, 36.7933733 ] } },
{ "type": "Feature", "properties": { "name": null, "bus": "yes" }, "geometry": { "type": "Point", "coordinates": [ 2.9931394, 36.7694798 ] } },
{ "type": "Feature", "properties": { "name": "CERCLE NATIONAL DE L'ARMEE - 2 -", "bus": "yes" }, "geometry": { "type": "Point", "coordinates": [ 2.9841038, 36.7690799 ] } },
{ "type": "Feature", "properties": { "name": "Rue Ahmed Ouaked", "bus": "yes" }, "geometry": { "type": "Point", "coordinates": [ 2.9930636, 36.7657158 ] } },
{ "type": "Feature", "properties": { "name": "Dar Diaf", "bus": "yes" }, "geometry": { "type": "Point", "coordinates": [ 2.9650733, 36.7720562 ] } },
{ "type": "Feature", "properties": { "name": "EL HAMIZ - CITE EN-NASER -", "bus": null }, "geometry": { "type": "Point", "coordinates": [ 3.2469716, 36.7320658 ] } },
{ "type": "Feature", "properties": { "name": "الحميز", "bus": "yes" }, "geometry": { "type": "Point", "coordinates": [ 3.2396957, 36.7310867 ] } },
{ "type": "Feature", "properties": { "name": null, "bus": "yes" }, "geometry": { "type": "Point", "coordinates": [ 3.2610432, 36.733837 ] } },
{ "type": "Feature", "properties": { "name": "Arrêt de bus Mohamed Bey", "bus": "yes" }, "geometry": { "type": "Point", "coordinates": [ 3.3617861, 36.7396444 ] } },
{ "type": "Feature", "properties": { "name": "AÏN TAYA", "bus": null }, "geometry": { "type": "Point", "coordinates": [ 3.2929232, 36.7928809 ] } },
{ "type": "Feature", "properties": { "name": null, "bus": "yes" }, "geometry": { "type": "Point", "coordinates": [ 3.0273798, 36.7941608 ] } },
{ "type": "Feature", "properties": { "name": "Arrêt de bus La Pérouse n°3u", "bus": "yes" }, "geometry": { "type": "Point", "coordinates": [ 3.232086, 36.807784 ] } },
{ "type": "Feature", "properties": { "name": "Arrêt de bus La Pérouse n°2", "bus": null }, "geometry": { "type": "Point", "coordinates": [ 3.2354157, 36.8059956 ] } },
{ "type": "Feature", "properties": { "name": "موقف حافلات الطلبة -طحكوت-", "bus": null }, "geometry": { "type": "Point", "coordinates": [ 2.8910116, 36.7580751 ] } },
{ "type": "Feature", "properties": { "name": "Cité universitaire CUB3", "bus": "yes" }, "geometry": { "type": "Point", "coordinates": [ 3.1876452, 36.7212059 ] } },
{ "type": "Feature", "properties": { "name": "Varrefour Souidani Boudjemaa", "bus": "yes" }, "geometry": { "type": "Point", "coordinates": [ 3.0484658, 36.7525547 ] } },
{ "type": "Feature", "properties": { "name": "DG PROTECTION CIVILE", "bus": null }, "geometry": { "type": "Point", "coordinates": [ 3.1985974, 36.7228028 ] } },
{ "type": "Feature", "properties": { "name": "05 juillet", "bus": null }, "geometry": { "type": "Point", "coordinates": [ 3.2016214, 36.7202581 ] } },
{ "type": "Feature", "properties": { "name": "Secoutto", "bus": "yes" }, "geometry": { "type": "Point", "coordinates": [ 3.0438702, 36.7854664 ] } },
{ "type": "Feature", "properties": { "name": "Bab Ezzouar", "bus": "yes" }, "geometry": { "type": "Point", "coordinates": [ 3.184487, 36.7274606 ] } },
{ "type": "Feature", "properties": { "name": null, "bus": "yes" }, "geometry": { "type": "Point", "coordinates": [ 3.1333178, 36.7200291 ] } },
{ "type": "Feature", "properties": { "name": "Rochelle", "bus": "yes" }, "geometry": { "type": "Point", "coordinates": [ 3.0425421, 36.7606377 ] } },
{ "type": "Feature", "properties": { "name": "Cité La Radieuse", "bus": "yes" }, "geometry": { "type": "Point", "coordinates": [ 3.1536408, 36.7239574 ] } },
{ "type": "Feature", "properties": { "name": "Cité La Radieuse", "bus": "yes" }, "geometry": { "type": "Point", "coordinates": [ 3.1541702, 36.723996 ] } },
{ "type": "Feature", "properties": { "name": null, "bus": "yes" }, "geometry": { "type": "Point", "coordinates": [ 2.8275816, 36.6894983 ] } },
{ "type": "Feature", "properties": { "name": "Plateau", "bus": "yes" }, "geometry": { "type": "Point", "coordinates": [ 2.8361948, 36.6757153 ] } },
{ "type": "Feature", "properties": { "name": "Port Saïd", "bus": "yes" }, "geometry": { "type": "Point", "coordinates": [ 3.0617158, 36.7810279 ] } },
{ "type": "Feature", "properties": { "name": "Taiwan", "bus": "yes" }, "geometry": { "type": "Point", "coordinates": [ 2.9965695, 36.7076399 ] } },
{ "type": "Feature", "properties": { "name": "Taiwan", "bus": "yes" }, "geometry": { "type": "Point", "coordinates": [ 2.9964542, 36.7077881 ] } },
{ "type": "Feature", "properties": { "name": "Marché", "bus": "yes" }, "geometry": { "type": "Point", "coordinates": [ 2.996509, 36.7118917 ] } },
{ "type": "Feature", "properties": { "name": "Marché", "bus": "yes" }, "geometry": { "type": "Point", "coordinates": [ 2.9969739, 36.711519 ] } },
{ "type": "Feature", "properties": { "name": "La cité", "bus": "yes" }, "geometry": { "type": "Point", "coordinates": [ 2.9933399, 36.7213668 ] } },
{ "type": "Feature", "properties": { "name": "La cité", "bus": "yes" }, "geometry": { "type": "Point", "coordinates": [ 2.9925549, 36.7223751 ] } },
{ "type": "Feature", "properties": { "name": "Pompe à essence", "bus": "yes" }, "geometry": { "type": "Point", "coordinates": [ 2.9899598, 36.7248804 ] } },
{ "type": "Feature", "properties": { "name": "Tribu", "bus": "yes" }, "geometry": { "type": "Point", "coordinates": [ 2.9907784, 36.7272875 ] } },
{ "type": "Feature", "properties": { "name": "Tribu", "bus": "yes" }, "geometry": { "type": "Point", "coordinates": [ 2.9910425, 36.727351 ] } },
{ "type": "Feature", "properties": { "name": "El Achour", "bus": "yes" }, "geometry": { "type": "Point", "coordinates": [ 2.9926913, 36.7317537 ] } },
{ "type": "Feature", "properties": { "name": "El Achour", "bus": "yes" }, "geometry": { "type": "Point", "coordinates": [ 2.9929444, 36.7315509 ] } },
{ "type": "Feature", "properties": { "name": "Oued Romane 2", "bus": "yes" }, "geometry": { "type": "Point", "coordinates": [ 2.9950016, 36.7424476 ] } },
{ "type": "Feature", "properties": { "name": "Oued Romane 2", "bus": "yes" }, "geometry": { "type": "Point", "coordinates": [ 2.9946595, 36.7425342 ] } },
{ "type": "Feature", "properties": { "name": "Oued Romane 1", "bus": "yes" }, "geometry": { "type": "Point", "coordinates": [ 2.9960969, 36.7445407 ] } },
{ "type": "Feature", "properties": { "name": "Oued Romane 1", "bus": "yes" }, "geometry": { "type": "Point", "coordinates": [ 2.997975, 36.7460763 ] } },
{ "type": "Feature", "properties": { "name": "شوني", "bus": null }, "geometry": { "type": "Point", "coordinates": [ 2.9972395, 36.778278 ] } },
{ "type": "Feature", "properties": { "name": "Aïssat Idir", "bus": "yes" }, "geometry": { "type": "Point", "coordinates": [ 3.0438127, 36.7649059 ] } },
{ "type": "Feature", "properties": { "name": "Soummam", "bus": "yes" }, "geometry": { "type": "Point", "coordinates": [ 3.1903868, 36.7259602 ] } },
{ "type": "Feature", "properties": { "name": "Soumam", "bus": "yes" }, "geometry": { "type": "Point", "coordinates": [ 3.1902446, 36.7261214 ] } },
{ "type": "Feature", "properties": { "name": "Branchement", "bus": "yes" }, "geometry": { "type": "Point", "coordinates": [ 2.9926451, 36.6985135 ] } },
{ "type": "Feature", "properties": { "name": "Branchement", "bus": "yes" }, "geometry": { "type": "Point", "coordinates": [ 2.9929006, 36.6988961 ] } },
{ "type": "Feature", "properties": { "name": "Khodja", "bus": "yes" }, "geometry": { "type": "Point", "coordinates": [ 2.9861903, 36.6971895 ] } },
{ "type": "Feature", "properties": { "name": "Serrurier", "bus": "yes" }, "geometry": { "type": "Point", "coordinates": [ 2.9942976, 36.7039407 ] } },
{ "type": "Feature", "properties": { "name": "Serrurier", "bus": "yes" }, "geometry": { "type": "Point", "coordinates": [ 2.9942956, 36.7042914 ] } },
{ "type": "Feature", "properties": { "name": "FRERES MADANI", "bus": "yes" }, "geometry": { "type": "Point", "coordinates": [ 3.0706392, 36.7386054 ] } },
{ "type": "Feature", "properties": { "name": "El Anassseur Station multimodale", "bus": "yes" }, "geometry": { "type": "Point", "coordinates": [ 3.0834502, 36.7430285 ] } },
{ "type": "Feature", "properties": { "name": "AADL", "bus": "yes" }, "geometry": { "type": "Point", "coordinates": [ 3.0045923, 36.7285275 ] } },
{ "type": "Feature", "properties": { "name": "AADL", "bus": "yes" }, "geometry": { "type": "Point", "coordinates": [ 3.0046579, 36.7286111 ] } },
{ "type": "Feature", "properties": { "name": "Afak", "bus": "yes" }, "geometry": { "type": "Point", "coordinates": [ 3.0086506, 36.7265113 ] } },
{ "type": "Feature", "properties": { "name": "Afak", "bus": "yes" }, "geometry": { "type": "Point", "coordinates": [ 3.0089964, 36.7265589 ] } },
{ "type": "Feature", "properties": { "name": "Belvédère", "bus": "yes" }, "geometry": { "type": "Point", "coordinates": [ 2.9835707, 36.8126379 ] } },
{ "type": "Feature", "properties": { "name": "CIMETIERE - AÏN BENIAN -", "bus": null }, "geometry": { "type": "Point", "coordinates": [ 2.9374967, 36.8066244 ] } },
{ "type": "Feature", "properties": { "name": "Le phare", "bus": "yes" }, "geometry": { "type": "Point", "coordinates": [ 2.9550029, 36.8109901 ] } },
{ "type": "Feature", "properties": { "name": "Copemad", "bus": null }, "geometry": { "type": "Point", "coordinates": [ 2.9034591, 36.7904438 ] } },
{ "type": "Feature", "properties": { "name": "Le Phare", "bus": null }, "geometry": { "type": "Point", "coordinates": [ 2.9541048, 36.8110281 ] } },
{ "type": "Feature", "properties": { "name": "Aïn Benian Cimetière", "bus": null }, "geometry": { "type": "Point", "coordinates": [ 2.9371171, 36.8066539 ] } },
{ "type": "Feature", "properties": { "name": "Baïnem", "bus": "yes" }, "geometry": { "type": "Point", "coordinates": [ 2.979892, 36.8132682 ] } },
{ "type": "Feature", "properties": { "name": "Baïnem Falaise", "bus": "yes" }, "geometry": { "type": "Point", "coordinates": [ 2.9723404, 36.8136193 ] } },
{ "type": "Feature", "properties": { "name": "Bains Romains", "bus": null }, "geometry": { "type": "Point", "coordinates": [ 2.9910827, 36.8135313 ] } },
{ "type": "Feature", "properties": { "name": "BARO ROUDJ", "bus": "yes" }, "geometry": { "type": "Point", "coordinates": [ 3.0448256, 36.784366 ] } },
{ "type": "Feature", "properties": { "name": "Barreaux rouges", "bus": "yes" }, "geometry": { "type": "Point", "coordinates": [ 3.0466304, 36.7815818 ] } },
{ "type": "Feature", "properties": { "name": "طارق بن زياد", "bus": "yes" }, "geometry": { "type": "Point", "coordinates": [ 3.0461698, 36.7786006 ] } },
{ "type": "Feature", "properties": { "name": null, "bus": "yes" }, "geometry": { "type": "Point", "coordinates": [ 3.0467909, 36.785689 ] } },
{ "type": "Feature", "properties": { "name": "Station Souidania", "bus": null }, "geometry": { "type": "Point", "coordinates": [ 2.9106908, 36.7088543 ] } },
{ "type": "Feature", "properties": { "name": null, "bus": "yes" }, "geometry": { "type": "Point", "coordinates": [ 3.0538656, 36.7747839 ] } },
{ "type": "Feature", "properties": { "name": null, "bus": "yes" }, "geometry": { "type": "Point", "coordinates": [ 3.0538112, 36.7749489 ] } },
{ "type": "Feature", "properties": { "name": "برج البحري", "bus": "yes" }, "geometry": { "type": "Point", "coordinates": [ 3.249725, 36.7894348 ] } },
{ "type": "Feature", "properties": { "name": "BRISE MARINE", "bus": null }, "geometry": { "type": "Point", "coordinates": [ 3.2491638, 36.7837506 ] } },
{ "type": "Feature", "properties": { "name": "Alger Plage", "bus": "yes" }, "geometry": { "type": "Point", "coordinates": [ 3.2382612, 36.7917881 ] } },
{ "type": "Feature", "properties": { "name": null, "bus": "yes" }, "geometry": { "type": "Point", "coordinates": [ 3.2467487, 36.7909201 ] } },
{ "type": "Feature", "properties": { "name": "Douzi 03", "bus": "yes" }, "geometry": { "type": "Point", "coordinates": [ 3.1844711, 36.7376022 ] } },
{ "type": "Feature", "properties": { "name": "4 Saison", "bus": "yes" }, "geometry": { "type": "Point", "coordinates": [ 3.0022477, 36.7968425 ] } },
{ "type": "Feature", "properties": { "name": "la city blanche", "bus": "yes" }, "geometry": { "type": "Point", "coordinates": [ 3.0040586, 36.7968884 ] } },
{ "type": "Feature", "properties": { "name": "Les Jasmins", "bus": "yes" }, "geometry": { "type": "Point", "coordinates": [ 3.0586418, 36.7399495 ] } },
{ "type": "Feature", "properties": { "name": null, "bus": "yes" }, "geometry": { "type": "Point", "coordinates": [ 2.988586, 36.6231138 ] } },
{ "type": "Feature", "properties": { "name": null, "bus": "yes" }, "geometry": { "type": "Point", "coordinates": [ 2.9922435, 36.6241854 ] } },
{ "type": "Feature", "properties": { "name": "قريدي 2", "bus": "yes" }, "geometry": { "type": "Point", "coordinates": [ 3.062613, 36.7334343 ] } },
{ "type": "Feature", "properties": { "name": null, "bus": "yes" }, "geometry": { "type": "Point", "coordinates": [ 2.9780241, 36.7538667 ] } },
{ "type": "Feature", "properties": { "name": null, "bus": "yes" }, "geometry": { "type": "Point", "coordinates": [ 2.9775994, 36.7539121 ] } },
{ "type": "Feature", "properties": { "name": null, "bus": "yes" }, "geometry": { "type": "Point", "coordinates": [ 2.9811634, 36.7540682 ] } },
{ "type": "Feature", "properties": { "name": "قريدي 1", "bus": "yes" }, "geometry": { "type": "Point", "coordinates": [ 3.0674506, 36.7312727 ] } },
{ "type": "Feature", "properties": { "name": "Drid Hocine", "bus": "yes" }, "geometry": { "type": "Point", "coordinates": [ 3.0858168, 36.7393487 ] } },
{ "type": "Feature", "properties": { "name": "Grande Poste (Sofia)", "bus": "yes" }, "geometry": { "type": "Point", "coordinates": [ 3.0606971, 36.7726166 ] } },
{ "type": "Feature", "properties": { "name": null, "bus": "yes" }, "geometry": { "type": "Point", "coordinates": [ 2.992274, 36.6441303 ] } },
{ "type": "Feature", "properties": { "name": "Grande Poste", "bus": "yes" }, "geometry": { "type": "Point", "coordinates": [ 3.059807, 36.7737317 ] } },
{ "type": "Feature", "properties": { "name": "Hamiz 5", "bus": "yes" }, "geometry": { "type": "Point", "coordinates": [ 3.2335442, 36.7392005 ] } },
{ "type": "Feature", "properties": { "name": "Hamiz 5", "bus": "yes" }, "geometry": { "type": "Point", "coordinates": [ 3.2335013, 36.7394734 ] } },
{ "type": "Feature", "properties": { "name": "El Annasser 1", "bus": "yes" }, "geometry": { "type": "Point", "coordinates": [ 3.0791646, 36.7437277 ] } },
{ "type": "Feature", "properties": { "name": "Les Vergers 1", "bus": "yes" }, "geometry": { "type": "Point", "coordinates": [ 3.0513823, 36.7232679 ] } },
{ "type": "Feature", "properties": { "name": "Carrefour Djnane Sfari", "bus": "yes" }, "geometry": { "type": "Point", "coordinates": [ 3.0450562, 36.7110971 ] } },
{ "type": "Feature", "properties": { "name": "Musset", "bus": "yes" }, "geometry": { "type": "Point", "coordinates": [ 3.0600243, 36.754942 ] } },
{ "type": "Feature", "properties": { "name": "Jardin d'Essai", "bus": "yes" }, "geometry": { "type": "Point", "coordinates": [ 3.073548, 36.746122 ] } },
{ "type": "Feature", "properties": { "name": "Les Sources", "bus": "yes" }, "geometry": { "type": "Point", "coordinates": [ 3.0642139, 36.7383156 ] } },
{ "type": "Feature", "properties": { "name": "Bir Mourad Rais - CNAS", "bus": "yes" }, "geometry": { "type": "Point", "coordinates": [ 3.0521923, 36.7396826 ] } },
{ "type": "Feature", "properties": { "name": "Sidi M'hamed", "bus": "yes" }, "geometry": { "type": "Point", "coordinates": [ 3.0667781, 36.7496209 ] } },
{ "type": "Feature", "properties": { "name": "Bir Mourad Rais - CNAS", "bus": "yes" }, "geometry": { "type": "Point", "coordinates": [ 3.0513613, 36.7395072 ] } },
{ "type": "Feature", "properties": { "name": "Birkhadem", "bus": "yes" }, "geometry": { "type": "Point", "coordinates": [ 3.0495691, 36.7158376 ] } },
{ "type": "Feature", "properties": { "name": "HARCHA", "bus": "yes" }, "geometry": { "type": "Point", "coordinates": [ 3.0547036, 36.7576701 ] } },
{ "type": "Feature", "properties": { "name": "PALAIS DU PEUPLE", "bus": "yes" }, "geometry": { "type": "Point", "coordinates": [ 3.0448422, 36.7586654 ] } },
{ "type": "Feature", "properties": { "name": "AEROHABITAT", "bus": "yes" }, "geometry": { "type": "Point", "coordinates": [ 3.0451414, 36.7657232 ] } },
{ "type": "Feature", "properties": { "name": "PARC DE BEYROUTH", "bus": "yes" }, "geometry": { "type": "Point", "coordinates": [ 3.0480974, 36.7673892 ] } },
{ "type": "Feature", "properties": { "name": "Lycée Zeineb Oum El Massakine", "bus": "yes" }, "geometry": { "type": "Point", "coordinates": [ 3.0505379, 36.7695013 ] } },
{ "type": "Feature", "properties": { "name": "SONALGAZ", "bus": "yes" }, "geometry": { "type": "Point", "coordinates": [ 3.0530156, 36.7738375 ] } },
{ "type": "Feature", "properties": { "name": "Krim Belkacem كريم بلقاسم", "bus": "yes" }, "geometry": { "type": "Point", "coordinates": [ 3.0515557, 36.7720494 ] } },
{ "type": "Feature", "properties": { "name": "AEROHABITAT", "bus": "yes" }, "geometry": { "type": "Point", "coordinates": [ 3.0454742, 36.7656164 ] } },
{ "type": "Feature", "properties": { "name": "Place Geay", "bus": "yes" }, "geometry": { "type": "Point", "coordinates": [ 3.0499981, 36.7706277 ] } },
{ "type": "Feature", "properties": { "name": "Ghermoul 1", "bus": "yes" }, "geometry": { "type": "Point", "coordinates": [ 3.0514881, 36.7587871 ] } },
{ "type": "Feature", "properties": { "name": "Hamoud Boualem", "bus": "yes" }, "geometry": { "type": "Point", "coordinates": [ 3.0839286, 36.7479757 ] } },
{ "type": "Feature", "properties": { "name": "Le Moulin", "bus": "yes" }, "geometry": { "type": "Point", "coordinates": [ 3.0559187, 36.7650921 ] } },
{ "type": "Feature", "properties": { "name": "1er Mai", "bus": "yes" }, "geometry": { "type": "Point", "coordinates": [ 3.0561413, 36.7603562 ] } },
{ "type": "Feature", "properties": { "name": "Place des Martyrs", "bus": "yes" }, "geometry": { "type": "Point", "coordinates": [ 3.0631841, 36.7864019 ] } },
{ "type": "Feature", "properties": { "name": "El Kettani", "bus": "yes" }, "geometry": { "type": "Point", "coordinates": [ 3.0582463, 36.7917272 ] } },
{ "type": "Feature", "properties": { "name": "Mauretania", "bus": "yes" }, "geometry": { "type": "Point", "coordinates": [ 3.0571118, 36.7694883 ] } },
{ "type": "Feature", "properties": { "name": "Escalier Mécanique", "bus": "yes" }, "geometry": { "type": "Point", "coordinates": [ 3.0482138, 36.7661605 ] } },
{ "type": "Feature", "properties": { "name": "Hôtel El Djazair", "bus": "yes" }, "geometry": { "type": "Point", "coordinates": [ 3.0473964, 36.7545374 ] } },
{ "type": "Feature", "properties": { "name": "Sacré Coeur", "bus": "yes" }, "geometry": { "type": "Point", "coordinates": [ 3.0474131, 36.7635115 ] } },
{ "type": "Feature", "properties": { "name": "FRERES EL SELAMI", "bus": "yes" }, "geometry": { "type": "Point", "coordinates": [ 3.0794011, 36.7294691 ] } },
{ "type": "Feature", "properties": { "name": "La Croix", "bus": "yes" }, "geometry": { "type": "Point", "coordinates": [ 3.0840198, 36.7299915 ] } },
{ "type": "Feature", "properties": { "name": null, "bus": "yes" }, "geometry": { "type": "Point", "coordinates": [ 3.1485976, 36.7230914 ] } },
{ "type": "Feature", "properties": { "name": "Cité jeunes filles", "bus": "yes" }, "geometry": { "type": "Point", "coordinates": [ 3.0142433, 36.7599543 ] } },
{ "type": "Feature", "properties": { "name": null, "bus": "yes" }, "geometry": { "type": "Point", "coordinates": [ 3.2601143, 36.7724748 ] } },
{ "type": "Feature", "properties": { "name": null, "bus": "yes" }, "geometry": { "type": "Point", "coordinates": [ 3.2600982, 36.7723373 ] } },
{ "type": "Feature", "properties": { "name": null, "bus": "yes" }, "geometry": { "type": "Point", "coordinates": [ 3.2600794, 36.7721665 ] } },
{ "type": "Feature", "properties": { "name": "DERGANA", "bus": null }, "geometry": { "type": "Point", "coordinates": [ 3.2600875, 36.7722524 ] } },
{ "type": "Feature", "properties": { "name": null, "bus": "yes" }, "geometry": { "type": "Point", "coordinates": [ 3.2601022, 36.7724114 ] } },
{ "type": "Feature", "properties": { "name": "Arrêt école ENST", "bus": "yes" }, "geometry": { "type": "Point", "coordinates": [ 3.2588872, 36.777768 ] } },
{ "type": "Feature", "properties": { "name": "Baba Ali", "bus": "yes" }, "geometry": { "type": "Point", "coordinates": [ 3.0486479, 36.67125 ] } },
{ "type": "Feature", "properties": { "name": "Bab El Ouad", "bus": "yes" }, "geometry": { "type": "Point", "coordinates": [ 3.0563348, 36.7923501 ] } },
{ "type": "Feature", "properties": { "name": null, "bus": "yes" }, "geometry": { "type": "Point", "coordinates": [ 3.0867726, 36.6712597 ] } },
{ "type": "Feature", "properties": { "name": null, "bus": "yes" }, "geometry": { "type": "Point", "coordinates": [ 3.0295074, 36.6965491 ] } },
{ "type": "Feature", "properties": { "name": null, "bus": "yes" }, "geometry": { "type": "Point", "coordinates": [ 3.0350787, 36.7159983 ] } },
{ "type": "Feature", "properties": { "name": null, "bus": "yes" }, "geometry": { "type": "Point", "coordinates": [ 3.03316, 36.7186269 ] } },
{ "type": "Feature", "properties": { "name": "Souk El Faleh", "bus": "yes" }, "geometry": { "type": "Point", "coordinates": [ 3.1774045, 36.7252066 ] } },
{ "type": "Feature", "properties": { "name": null, "bus": "yes" }, "geometry": { "type": "Point", "coordinates": [ 3.0909291, 36.6759225 ] } },
{ "type": "Feature", "properties": { "name": null, "bus": "yes" }, "geometry": { "type": "Point", "coordinates": [ 3.2518397, 36.8082706 ] } },
{ "type": "Feature", "properties": { "name": null, "bus": "yes" }, "geometry": { "type": "Point", "coordinates": [ 3.2548889, 36.8103234 ] } },
{ "type": "Feature", "properties": { "name": null, "bus": "yes" }, "geometry": { "type": "Point", "coordinates": [ 3.2523499, 36.8090105 ] } },
{ "type": "Feature", "properties": { "name": null, "bus": "yes" }, "geometry": { "type": "Point", "coordinates": [ 3.0883967, 36.6085005 ] } },
{ "type": "Feature", "properties": { "name": null, "bus": "yes" }, "geometry": { "type": "Point", "coordinates": [ 3.0915642, 36.6030724 ] } },
{ "type": "Feature", "properties": { "name": null, "bus": "yes" }, "geometry": { "type": "Point", "coordinates": [ 3.0887269, 36.6063356 ] } },
{ "type": "Feature", "properties": { "name": null, "bus": "yes" }, "geometry": { "type": "Point", "coordinates": [ 3.0888793, 36.6019126 ] } },
{ "type": "Feature", "properties": { "name": null, "bus": "yes" }, "geometry": { "type": "Point", "coordinates": [ 3.0918686, 36.6072277 ] } },
{ "type": "Feature", "properties": { "name": "Arrêt de bus 720", "bus": "yes" }, "geometry": { "type": "Point", "coordinates": [ 3.0805028, 36.706564 ] } },
{ "type": "Feature", "properties": { "name": "el oued (ooredoo)", "bus": "yes" }, "geometry": { "type": "Point", "coordinates": [ 2.9493561, 36.7447529 ] } },
{ "type": "Feature", "properties": { "name": "arrêt de bus Sorecal", "bus": "yes" }, "geometry": { "type": "Point", "coordinates": [ 3.1916184, 36.736711 ] } },
{ "type": "Feature", "properties": { "name": "Sorecal (pharmacie)", "bus": "yes" }, "geometry": { "type": "Point", "coordinates": [ 3.1868086, 36.7358 ] } },
{ "type": "Feature", "properties": { "name": "Tamaris", "bus": "yes" }, "geometry": { "type": "Point", "coordinates": [ 3.171885, 36.7337652 ] } },
{ "type": "Feature", "properties": { "name": "Tamaris", "bus": "yes" }, "geometry": { "type": "Point", "coordinates": [ 3.1717628, 36.7334783 ] } },
{ "type": "Feature", "properties": { "name": "arrêt de 720", "bus": "yes" }, "geometry": { "type": "Point", "coordinates": [ 3.0794661, 36.7062402 ] } },
{ "type": "Feature", "properties": { "name": "arrêt de pompa", "bus": "yes" }, "geometry": { "type": "Point", "coordinates": [ 3.0821693, 36.7073189 ] } },
{ "type": "Feature", "properties": { "name": "arrêt Château d'Eau 1", "bus": "yes" }, "geometry": { "type": "Point", "coordinates": [ 3.0736463, 36.7019357 ] } },
{ "type": "Feature", "properties": { "name": "arrêt le virage 1", "bus": "yes" }, "geometry": { "type": "Point", "coordinates": [ 3.0842535, 36.7082993 ] } },
{ "type": "Feature", "properties": { "name": "arrêt la mairie (el karess)", "bus": "yes" }, "geometry": { "type": "Point", "coordinates": [ 3.0886614, 36.7105977 ] } },
{ "type": "Feature", "properties": { "name": "arrêt le fleuriste", "bus": "yes" }, "geometry": { "type": "Point", "coordinates": [ 3.0936121, 36.7115602 ] } },
{ "type": "Feature", "properties": { "name": "arrêt Château d'Eau 2", "bus": "yes" }, "geometry": { "type": "Point", "coordinates": [ 3.072537, 36.7019604 ] } },
{ "type": "Feature", "properties": { "name": "arrêt la provale", "bus": "yes" }, "geometry": { "type": "Point", "coordinates": [ 3.0931058, 36.7205915 ] } },
{ "type": "Feature", "properties": { "name": "arrêt la placette", "bus": "yes" }, "geometry": { "type": "Point", "coordinates": [ 3.1001073, 36.7209493 ] } },
{ "type": "Feature", "properties": { "name": null, "bus": "yes" }, "geometry": { "type": "Point", "coordinates": [ 3.0930124, 36.7199747 ] } },
{ "type": "Feature", "properties": { "name": "Arrêt Djenane El Kares", "bus": "yes" }, "geometry": { "type": "Point", "coordinates": [ 3.0855646, 36.7122196 ] } },
{ "type": "Feature", "properties": { "name": null, "bus": "yes" }, "geometry": { "type": "Point", "coordinates": [ 3.0921531, 36.7176417 ] } },
{ "type": "Feature", "properties": { "name": "Arrêt 2", "bus": "yes" }, "geometry": { "type": "Point", "coordinates": [ 3.0748946, 36.704855 ] } },
{ "type": "Feature", "properties": { "name": "arrêt 720 (2)", "bus": "yes" }, "geometry": { "type": "Point", "coordinates": [ 3.0790404, 36.7068353 ] } },
{ "type": "Feature", "properties": { "name": "Arrêt Djenane El Kares", "bus": "yes" }, "geometry": { "type": "Point", "coordinates": [ 3.0867618, 36.712836 ] } },
{ "type": "Feature", "properties": { "name": "arrêt le centre", "bus": "yes" }, "geometry": { "type": "Point", "coordinates": [ 3.0923584, 36.7190466 ] } },
{ "type": "Feature", "properties": { "name": "BAINEM", "bus": null }, "geometry": { "type": "Point", "coordinates": [ 2.9793099, 36.8135076 ] } },
{ "type": "Feature", "properties": { "name": "الرئيس حميدو 1", "bus": "yes" }, "geometry": { "type": "Point", "coordinates": [ 3.0143152, 36.8168672 ] } },
{ "type": "Feature", "properties": { "name": "INTERSECTION - ENTREE AÏN BENIAN", "bus": null }, "geometry": { "type": "Point", "coordinates": [ 2.9184286, 36.8000495 ] } },
{ "type": "Feature", "properties": { "name": null, "bus": "yes" }, "geometry": { "type": "Point", "coordinates": [ 3.2416174, 36.7697987 ] } },
{ "type": "Feature", "properties": { "name": "قهوة شرقي", "bus": "yes" }, "geometry": { "type": "Point", "coordinates": [ 3.2485484, 36.7781943 ] } },
{ "type": "Feature", "properties": { "name": "GRAND ROCHER", "bus": null }, "geometry": { "type": "Point", "coordinates": [ 2.9441242, 36.8072312 ] } },
{ "type": "Feature", "properties": { "name": null, "bus": "yes" }, "geometry": { "type": "Point", "coordinates": [ 2.954977, 36.7282094 ] } },
{ "type": "Feature", "properties": { "name": null, "bus": "yes" }, "geometry": { "type": "Point", "coordinates": [ 2.9552649, 36.728781 ] } },
{ "type": "Feature", "properties": { "name": null, "bus": "yes" }, "geometry": { "type": "Point", "coordinates": [ 2.9589649, 36.7304152 ] } },
{ "type": "Feature", "properties": { "name": null, "bus": "yes" }, "geometry": { "type": "Point", "coordinates": [ 2.9655729, 36.7250752 ] } },
{ "type": "Feature", "properties": { "name": null, "bus": "yes" }, "geometry": { "type": "Point", "coordinates": [ 2.9624732, 36.7163281 ] } },
{ "type": "Feature", "properties": { "name": null, "bus": "yes" }, "geometry": { "type": "Point", "coordinates": [ 2.9649142, 36.7107174 ] } },
{ "type": "Feature", "properties": { "name": null, "bus": "yes" }, "geometry": { "type": "Point", "coordinates": [ 2.9631334, 36.7147127 ] } },
{ "type": "Feature", "properties": { "name": null, "bus": "yes" }, "geometry": { "type": "Point", "coordinates": [ 3.100635, 36.7002257 ] } },
{ "type": "Feature", "properties": { "name": null, "bus": "yes" }, "geometry": { "type": "Point", "coordinates": [ 3.0854871, 36.6687726 ] } },
{ "type": "Feature", "properties": { "name": "la Concorde", "bus": "yes" }, "geometry": { "type": "Point", "coordinates": [ 3.0448041, 36.7333557 ] } },
{ "type": "Feature", "properties": { "name": "MARCHER AIN NAADJA", "bus": null }, "geometry": { "type": "Point", "coordinates": [ 3.0739565, 36.6981338 ] } },
{ "type": "Feature", "properties": { "name": null, "bus": "yes" }, "geometry": { "type": "Point", "coordinates": [ 3.1287413, 36.6117279 ] } },
{ "type": "Feature", "properties": { "name": "C.E.M", "bus": "yes" }, "geometry": { "type": "Point", "coordinates": [ 3.1276428, 36.6139614 ] } },
{ "type": "Feature", "properties": { "name": "DIAR DJEMAA", "bus": "yes" }, "geometry": { "type": "Point", "coordinates": [ 3.1283743, 36.7285185 ] } },
{ "type": "Feature", "properties": { "name": "DIAR DJEMAA", "bus": "yes" }, "geometry": { "type": "Point", "coordinates": [ 3.1282959, 36.7284881 ] } },
{ "type": "Feature", "properties": { "name": "Arrêt de cous CUB 1", "bus": "yes" }, "geometry": { "type": "Point", "coordinates": [ 3.1838581, 36.7319588 ] } },
{ "type": "Feature", "properties": { "name": null, "bus": "yes" }, "geometry": { "type": "Point", "coordinates": [ 3.0839807, 36.7295127 ] } },
{ "type": "Feature", "properties": { "name": "Z'Ghara زغارة", "bus": "yes" }, "geometry": { "type": "Point", "coordinates": [ 3.028958, 36.8058345 ] } },
{ "type": "Feature", "properties": { "name": "Belfort", "bus": "yes" }, "geometry": { "type": "Point", "coordinates": [ 3.1493518, 36.7224515 ] } },
{ "type": "Feature", "properties": { "name": "موقف براقي الحافلات", "bus": "yes" }, "geometry": { "type": "Point", "coordinates": [ 3.0858977, 36.6727908 ] } },
{ "type": "Feature", "properties": { "name": "Bobsila", "bus": "yes" }, "geometry": { "type": "Point", "coordinates": [ 3.1226985, 36.7126461 ] } },
{ "type": "Feature", "properties": { "name": "Bobsila", "bus": "yes" }, "geometry": { "type": "Point", "coordinates": [ 3.1241509, 36.713386 ] } },
{ "type": "Feature", "properties": { "name": "La marine", "bus": "yes" }, "geometry": { "type": "Point", "coordinates": [ 2.9348981, 36.6147964 ] } },
{ "type": "Feature", "properties": { "name": "Bab Ezzouar", "bus": "yes" }, "geometry": { "type": "Point", "coordinates": [ 3.1843631, 36.7259571 ] } },
{ "type": "Feature", "properties": { "name": "Etusa", "bus": "yes" }, "geometry": { "type": "Point", "coordinates": [ 3.1701686, 36.6700179 ] } },
{ "type": "Feature", "properties": { "name": "Etusa", "bus": "yes" }, "geometry": { "type": "Point", "coordinates": [ 3.17112, 36.6689013 ] } },
{ "type": "Feature", "properties": { "name": "arrêt le virage 2", "bus": "yes" }, "geometry": { "type": "Point", "coordinates": [ 3.0834195, 36.7080576 ] } },
{ "type": "Feature", "properties": { "name": "Le fleuriste", "bus": "yes" }, "geometry": { "type": "Point", "coordinates": [ 3.0938388, 36.7113943 ] } },
{ "type": "Feature", "properties": { "name": "Arret de bus", "bus": "yes" }, "geometry": { "type": "Point", "coordinates": [ 3.0943712, 36.7093796 ] } },
{ "type": "Feature", "properties": { "name": null, "bus": "yes" }, "geometry": { "type": "Point", "coordinates": [ 2.9891436, 36.647056 ] } },
{ "type": "Feature", "properties": { "name": null, "bus": "yes" }, "geometry": { "type": "Point", "coordinates": [ 2.9873411, 36.6465352 ] } },
{ "type": "Feature", "properties": { "name": null, "bus": "yes" }, "geometry": { "type": "Point", "coordinates": [ 2.985514, 36.6463158 ] } },
{ "type": "Feature", "properties": { "name": null, "bus": "yes" }, "geometry": { "type": "Point", "coordinates": [ 2.9839535, 36.6479817 ] } },
{ "type": "Feature", "properties": { "name": null, "bus": "yes" }, "geometry": { "type": "Point", "coordinates": [ 2.9822113, 36.6499687 ] } },
{ "type": "Feature", "properties": { "name": "Birtouta", "bus": null }, "geometry": { "type": "Point", "coordinates": [ 3.0008624, 36.6410304 ] } },
{ "type": "Feature", "properties": { "name": "الكحلة", "bus": "yes" }, "geometry": { "type": "Point", "coordinates": [ 3.0056872, 36.6352519 ] } },
{ "type": "Feature", "properties": { "name": null, "bus": "yes" }, "geometry": { "type": "Point", "coordinates": [ 3.0092018, 36.6309385 ] } },
{ "type": "Feature", "properties": { "name": "BIRKHADEM", "bus": "yes" }, "geometry": { "type": "Point", "coordinates": [ 3.0492887, 36.715151 ] } },
{ "type": "Feature", "properties": { "name": "Terminus Baba Hassen", "bus": "yes" }, "geometry": { "type": "Point", "coordinates": [ 2.9740209, 36.695912 ] } },
{ "type": "Feature", "properties": { "name": "EDIMCO", "bus": "yes" }, "geometry": { "type": "Point", "coordinates": [ 3.372562, 36.7328749 ] } },
{ "type": "Feature", "properties": { "name": "موقف الحافلات الصنوبر البحري", "bus": "yes" }, "geometry": { "type": "Point", "coordinates": [ 2.8958635, 36.7673323 ] } },
{ "type": "Feature", "properties": { "name": "أولاد العربي", "bus": "yes" }, "geometry": { "type": "Point", "coordinates": [ 3.3154399, 36.7575182 ] } },
{ "type": "Feature", "properties": { "name": "RUE KACI AMEUR", "bus": null }, "geometry": { "type": "Point", "coordinates": [ 2.8868021, 36.750607 ] } },
{ "type": "Feature", "properties": { "name": "La Glacière", "bus": "yes" }, "geometry": { "type": "Point", "coordinates": [ 3.1253627, 36.731676 ] } },
{ "type": "Feature", "properties": { "name": "لتياج", "bus": "yes" }, "geometry": { "type": "Point", "coordinates": [ 3.3054678, 36.7810016 ] } },
{ "type": "Feature", "properties": { "name": "Sbitar", "bus": "yes" }, "geometry": { "type": "Point", "coordinates": [ 3.2967132, 36.7924413 ] } },
{ "type": "Feature", "properties": { "name": "Hay Al Worood", "bus": "yes" }, "geometry": { "type": "Point", "coordinates": [ 3.3028436, 36.7701664 ] } },
{ "type": "Feature", "properties": { "name": "Salasse", "bus": "yes" }, "geometry": { "type": "Point", "coordinates": [ 3.2873881, 36.7555158 ] } },
{ "type": "Feature", "properties": { "name": "Pharmacie", "bus": "yes" }, "geometry": { "type": "Point", "coordinates": [ 3.3134868, 36.7716448 ] } },
{ "type": "Feature", "properties": { "name": "Maameria", "bus": "yes" }, "geometry": { "type": "Point", "coordinates": [ 3.3001681, 36.7678199 ] } },
{ "type": "Feature", "properties": { "name": "Braïdia", "bus": "yes" }, "geometry": { "type": "Point", "coordinates": [ 3.3339926, 36.7594316 ] } },
{ "type": "Feature", "properties": { "name": "شاطئ الديكا", "bus": "yes" }, "geometry": { "type": "Point", "coordinates": [ 3.3054704, 36.7849929 ] } },
{ "type": "Feature", "properties": { "name": "Virage", "bus": "yes" }, "geometry": { "type": "Point", "coordinates": [ 3.2993482, 36.7549156 ] } },
{ "type": "Feature", "properties": { "name": "Durafour", "bus": "yes" }, "geometry": { "type": "Point", "coordinates": [ 3.1045589, 36.7328572 ] } },
{ "type": "Feature", "properties": { "name": "Ouled Chebel", "bus": "yes" }, "geometry": { "type": "Point", "coordinates": [ 2.9959961, 36.596694 ] } },
{ "type": "Feature", "properties": { "name": "Hadjra", "bus": "yes" }, "geometry": { "type": "Point", "coordinates": [ 2.99671, 36.603434 ] } },
{ "type": "Feature", "properties": { "name": "القهوة", "bus": "yes" }, "geometry": { "type": "Point", "coordinates": [ 2.9927223, 36.6005538 ] } },
{ "type": "Feature", "properties": { "name": "الرانبي", "bus": "yes" }, "geometry": { "type": "Point", "coordinates": [ 3.0040037, 36.6178675 ] } },
{ "type": "Feature", "properties": { "name": "كوفي", "bus": "yes" }, "geometry": { "type": "Point", "coordinates": [ 3.0002927, 36.6011153 ] } },
{ "type": "Feature", "properties": { "name": "Dakhla", "bus": "yes" }, "geometry": { "type": "Point", "coordinates": [ 3.1258438, 36.6175523 ] } },
{ "type": "Feature", "properties": { "name": "موقف حافلات نقل الطلبة", "bus": "yes" }, "geometry": { "type": "Point", "coordinates": [ 3.0730598, 36.7302933 ] } },
{ "type": "Feature", "properties": { "name": "Frères El Sellami", "bus": "yes" }, "geometry": { "type": "Point", "coordinates": [ 3.0797929, 36.7292881 ] } },
{ "type": "Feature", "properties": { "name": "Arrêt de bus belfort", "bus": "yes" }, "geometry": { "type": "Point", "coordinates": [ 3.1484206, 36.7223802 ] } },
{ "type": "Feature", "properties": { "name": null, "bus": "yes" }, "geometry": { "type": "Point", "coordinates": [ 3.00054, 36.6414863 ] } },
{ "type": "Feature", "properties": { "name": "حوش شاوش", "bus": "yes" }, "geometry": { "type": "Point", "coordinates": [ 2.9983327, 36.7327724 ] } },
{ "type": "Feature", "properties": { "name": "محطة رويبة-حمادي", "bus": "yes" }, "geometry": { "type": "Point", "coordinates": [ 3.2831958, 36.7325702 ] } },
{ "type": "Feature", "properties": { "name": "Hamiz", "bus": "yes" }, "geometry": { "type": "Point", "coordinates": [ 3.2340745, 36.7415822 ] } },
{ "type": "Feature", "properties": { "name": "موقف حافلة", "bus": "yes" }, "geometry": { "type": "Point", "coordinates": [ 3.0857117, 36.6553648 ] } },
{ "type": "Feature", "properties": { "name": null, "bus": "yes" }, "geometry": { "type": "Point", "coordinates": [ 3.0858895, 36.6520067 ] } },
{ "type": "Feature", "properties": { "name": null, "bus": "yes" }, "geometry": { "type": "Point", "coordinates": [ 3.086117, 36.6486109 ] } },
{ "type": "Feature", "properties": { "name": null, "bus": "yes" }, "geometry": { "type": "Point", "coordinates": [ 3.0856768, 36.645817 ] } },
{ "type": "Feature", "properties": { "name": "موقف حافلة", "bus": "yes" }, "geometry": { "type": "Point", "coordinates": [ 3.0825357, 36.6458051 ] } },
{ "type": "Feature", "properties": { "name": "موقف حافلات", "bus": "yes" }, "geometry": { "type": "Point", "coordinates": [ 3.0728217, 36.7278292 ] } },
{ "type": "Feature", "properties": { "name": "LES HOTELS", "bus": "yes" }, "geometry": { "type": "Point", "coordinates": [ 3.1980057, 36.7151845 ] } },
{ "type": "Feature", "properties": { "name": "شطيبي", "bus": "yes" }, "geometry": { "type": "Point", "coordinates": [ 3.2073176, 36.7410213 ] } },
{ "type": "Feature", "properties": { "name": null, "bus": "yes" }, "geometry": { "type": "Point", "coordinates": [ 3.1979966, 36.7355365 ] } },
{ "type": "Feature", "properties": { "name": null, "bus": "yes" }, "geometry": { "type": "Point", "coordinates": [ 3.2058454, 36.740124 ] } },
{ "type": "Feature", "properties": { "name": "مصلى", "bus": "yes" }, "geometry": { "type": "Point", "coordinates": [ 3.2034506, 36.7387665 ] } },
{ "type": "Feature", "properties": { "name": "المخبزة", "bus": "yes" }, "geometry": { "type": "Point", "coordinates": [ 3.2019239, 36.7379086 ] } },
{ "type": "Feature", "properties": { "name": null, "bus": "yes" }, "geometry": { "type": "Point", "coordinates": [ 2.9929368, 36.6431966 ] } },
{ "type": "Feature", "properties": { "name": "النقل الجامعي", "bus": "yes" }, "geometry": { "type": "Point", "coordinates": [ 3.187658, 36.7154017 ] } },
{ "type": "Feature", "properties": { "name": null, "bus": "yes" }, "geometry": { "type": "Point", "coordinates": [ 2.9857245, 36.6458446 ] } },
{ "type": "Feature", "properties": { "name": "Place Ferhani", "bus": "yes" }, "geometry": { "type": "Point", "coordinates": [ 3.0536521, 36.7935528 ] } },
{ "type": "Feature", "properties": { "name": null, "bus": "yes" }, "geometry": { "type": "Point", "coordinates": [ 3.1664382, 36.6709424 ] } },
{ "type": "Feature", "properties": { "name": "Hôtel Dar Diaf", "bus": "yes" }, "geometry": { "type": "Point", "coordinates": [ 2.965575, 36.7717107 ] } },
{ "type": "Feature", "properties": { "name": "Les iris", "bus": "yes" }, "geometry": { "type": "Point", "coordinates": [ 3.3345484, 36.7299855 ] } },
{ "type": "Feature", "properties": { "name": null, "bus": "yes" }, "geometry": { "type": "Point", "coordinates": [ 3.0236589, 36.7023756 ] } },
{ "type": "Feature", "properties": { "name": "chez Sid Ahmed", "bus": "yes" }, "geometry": { "type": "Point", "coordinates": [ 2.9482528, 36.6393728 ] } },
{ "type": "Feature", "properties": { "name": "Aéroport Terminal International", "bus": "yes" }, "geometry": { "type": "Point", "coordinates": [ 3.206833, 36.6989188 ] } },
{ "type": "Feature", "properties": { "name": null, "bus": "yes" }, "geometry": { "type": "Point", "coordinates": [ 3.0293163, 36.745395 ] } },
{ "type": "Feature", "properties": { "name": "Haouch El Hadj", "bus": "yes" }, "geometry": { "type": "Point", "coordinates": [ 3.0290936, 36.6600625 ] } },
{ "type": "Feature", "properties": { "name": null, "bus": "yes" }, "geometry": { "type": "Point", "coordinates": [ 3.0413788, 36.6674876 ] } },
{ "type": "Feature", "properties": { "name": "DOMAINE HADJERI AHMED", "bus": null }, "geometry": { "type": "Point", "coordinates": [ 2.8666294, 36.7400964 ] } },
{ "type": "Feature", "properties": { "name": "Brise Marine", "bus": null }, "geometry": { "type": "Point", "coordinates": [ 3.2492409, 36.7834396 ] } },
{ "type": "Feature", "properties": { "name": "École Supérieure d'Hôtellerie", "bus": null }, "geometry": { "type": "Point", "coordinates": [ 2.9022139, 36.7870421 ] } },
{ "type": "Feature", "properties": { "name": "م 16", "bus": "yes" }, "geometry": { "type": "Point", "coordinates": [ 3.2488734, 36.7776124 ] } },
{ "type": "Feature", "properties": { "name": null, "bus": "yes" }, "geometry": { "type": "Point", "coordinates": [ 3.2693522, 36.7810641 ] } },
{ "type": "Feature", "properties": { "name": null, "bus": "yes" }, "geometry": { "type": "Point", "coordinates": [ 3.269465, 36.7818962 ] } },
{ "type": "Feature", "properties": { "name": null, "bus": "yes" }, "geometry": { "type": "Point", "coordinates": [ 3.2448706, 36.7850207 ] } },
{ "type": "Feature", "properties": { "name": null, "bus": "yes" }, "geometry": { "type": "Point", "coordinates": [ 3.3471835, 36.7426827 ] } },
{ "type": "Feature", "properties": { "name": null, "bus": "yes" }, "geometry": { "type": "Point", "coordinates": [ 3.2667815, 36.7352143 ] } },
{ "type": "Feature", "properties": { "name": null, "bus": "yes" }, "geometry": { "type": "Point", "coordinates": [ 3.2698568, 36.735647 ] } },
{ "type": "Feature", "properties": { "name": "P911", "bus": "yes" }, "geometry": { "type": "Point", "coordinates": [ 3.2450494, 36.790886 ] } },
{ "type": "Feature", "properties": { "name": null, "bus": "yes" }, "geometry": { "type": "Point", "coordinates": [ 3.2825374, 36.7366908 ] } },
{ "type": "Feature", "properties": { "name": null, "bus": "yes" }, "geometry": { "type": "Point", "coordinates": [ 3.2813961, 36.7384057 ] } },
{ "type": "Feature", "properties": { "name": "م 834", "bus": "yes" }, "geometry": { "type": "Point", "coordinates": [ 3.2838299, 36.7382753 ] } },
{ "type": "Feature", "properties": { "name": null, "bus": "yes" }, "geometry": { "type": "Point", "coordinates": [ 3.2700143, 36.7355946 ] } },
{ "type": "Feature", "properties": { "name": "TVC ( ISFF)", "bus": null }, "geometry": { "type": "Point", "coordinates": [ 3.261508, 36.7339318 ] } },
{ "type": "Feature", "properties": { "name": null, "bus": "yes" }, "geometry": { "type": "Point", "coordinates": [ 3.2826151, 36.7344799 ] } },
{ "type": "Feature", "properties": { "name": null, "bus": "yes" }, "geometry": { "type": "Point", "coordinates": [ 3.2779159, 36.7372326 ] } },
{ "type": "Feature", "properties": { "name": null, "bus": "yes" }, "geometry": { "type": "Point", "coordinates": [ 3.2781462, 36.735557 ] } },
{ "type": "Feature", "properties": { "name": "Cité Azur et Mer", "bus": "yes" }, "geometry": { "type": "Point", "coordinates": [ 3.2377427, 36.7873312 ] } },
{ "type": "Feature", "properties": { "name": null, "bus": "yes" }, "geometry": { "type": "Point", "coordinates": [ 3.3438326, 36.7502631 ] } },
{ "type": "Feature", "properties": { "name": null, "bus": "yes" }, "geometry": { "type": "Point", "coordinates": [ 3.3635858, 36.7486073 ] } },
{ "type": "Feature", "properties": { "name": null, "bus": "yes" }, "geometry": { "type": "Point", "coordinates": [ 3.3437798, 36.7440577 ] } },
{ "type": "Feature", "properties": { "name": null, "bus": "yes" }, "geometry": { "type": "Point", "coordinates": [ 3.3531656, 36.7391554 ] } },
{ "type": "Feature", "properties": { "name": null, "bus": "yes" }, "geometry": { "type": "Point", "coordinates": [ 3.3695139, 36.7453395 ] } },
{ "type": "Feature", "properties": { "name": null, "bus": "yes" }, "geometry": { "type": "Point", "coordinates": [ 3.3054069, 36.7389329 ] } },
{ "type": "Feature", "properties": { "name": null, "bus": "yes" }, "geometry": { "type": "Point", "coordinates": [ 3.2400232, 36.7882292 ] } },
{ "type": "Feature", "properties": { "name": null, "bus": "yes" }, "geometry": { "type": "Point", "coordinates": [ 3.3442866, 36.7418418 ] } },
{ "type": "Feature", "properties": { "name": null, "bus": "yes" }, "geometry": { "type": "Point", "coordinates": [ 3.3540888, 36.759118 ] } },
{ "type": "Feature", "properties": { "name": "Diar El Gharb 1", "bus": null }, "geometry": { "type": "Point", "coordinates": [ 3.2580313, 36.8006182 ] } },
{ "type": "Feature", "properties": { "name": null, "bus": "yes" }, "geometry": { "type": "Point", "coordinates": [ 3.3435175, 36.7441404 ] } },
{ "type": "Feature", "properties": { "name": "م 449", "bus": "yes" }, "geometry": { "type": "Point", "coordinates": [ 3.2505244, 36.8110972 ] } },
{ "type": "Feature", "properties": { "name": "م 834", "bus": "yes" }, "geometry": { "type": "Point", "coordinates": [ 3.2837391, 36.740106 ] } },
{ "type": "Feature", "properties": { "name": "P187", "bus": "yes" }, "geometry": { "type": "Point", "coordinates": [ 3.3388317, 36.7411911 ] } },
{ "type": "Feature", "properties": { "name": null, "bus": "yes" }, "geometry": { "type": "Point", "coordinates": [ 3.3471002, 36.7427319 ] } },
{ "type": "Feature", "properties": { "name": null, "bus": "yes" }, "geometry": { "type": "Point", "coordinates": [ 3.3387724, 36.7412695 ] } },
{ "type": "Feature", "properties": { "name": null, "bus": "yes" }, "geometry": { "type": "Point", "coordinates": [ 3.2900465, 36.7663222 ] } },
{ "type": "Feature", "properties": { "name": null, "bus": "yes" }, "geometry": { "type": "Point", "coordinates": [ 3.247409, 36.7898538 ] } },
{ "type": "Feature", "properties": { "name": "Cité 648 logements", "bus": "yes" }, "geometry": { "type": "Point", "coordinates": [ 3.0453206, 36.6700839 ] } },
{ "type": "Feature", "properties": { "name": null, "bus": "yes" }, "geometry": { "type": "Point", "coordinates": [ 3.015597, 36.6645701 ] } },
{ "type": "Feature", "properties": { "name": "Triolet", "bus": "yes" }, "geometry": { "type": "Point", "coordinates": [ 3.0444753, 36.7880234 ] } },
{ "type": "Feature", "properties": { "name": "حميدو", "bus": "yes" }, "geometry": { "type": "Point", "coordinates": [ 2.9961429, 36.6098078 ] } },
{ "type": "Feature", "properties": { "name": "البوصت", "bus": "yes" }, "geometry": { "type": "Point", "coordinates": [ 2.9973075, 36.6130265 ] } },
{ "type": "Feature", "properties": { "name": "الجامع", "bus": "yes" }, "geometry": { "type": "Point", "coordinates": [ 3.0005031, 36.6148617 ] } },
{ "type": "Feature", "properties": { "name": "الباريار", "bus": "yes" }, "geometry": { "type": "Point", "coordinates": [ 3.0022352, 36.624585 ] } },
{ "type": "Feature", "properties": { "name": "Sidi Abderahmane", "bus": "yes" }, "geometry": { "type": "Point", "coordinates": [ 3.0588421, 36.7882946 ] } },
{ "type": "Feature", "properties": { "name": null, "bus": "yes" }, "geometry": { "type": "Point", "coordinates": [ 3.0531773, 36.7779575 ] } },
{ "type": "Feature", "properties": { "name": "Oukba", "bus": "yes" }, "geometry": { "type": "Point", "coordinates": [ 3.0559839, 36.7891581 ] } },
{ "type": "Feature", "properties": { "name": "Re maison", "bus": "yes" }, "geometry": { "type": "Point", "coordinates": [ 3.0509249, 36.7881738 ] } },
{ "type": "Feature", "properties": { "name": "Secoutto", "bus": "yes" }, "geometry": { "type": "Point", "coordinates": [ 3.0439934, 36.7855161 ] } },
{ "type": "Feature", "properties": { "name": "Grand Rocher", "bus": null }, "geometry": { "type": "Point", "coordinates": [ 2.9446068, 36.8074336 ] } },
{ "type": "Feature", "properties": { "name": "LES SOURCES", "bus": "yes" }, "geometry": { "type": "Point", "coordinates": [ 3.0641448, 36.7384413 ] } },
{ "type": "Feature", "properties": { "name": "Station Bir Morade Rais", "bus": "yes" }, "geometry": { "type": "Point", "coordinates": [ 3.0490977, 36.7398213 ] } },
{ "type": "Feature", "properties": { "name": "Les Jasmins", "bus": "yes" }, "geometry": { "type": "Point", "coordinates": [ 3.0585363, 36.7398535 ] } },
{ "type": "Feature", "properties": { "name": "Frères Madani", "bus": "yes" }, "geometry": { "type": "Point", "coordinates": [ 3.070668, 36.7384456 ] } },
{ "type": "Feature", "properties": { "name": "Oued Kniss", "bus": "yes" }, "geometry": { "type": "Point", "coordinates": [ 3.0810589, 36.7411389 ] } },
{ "type": "Feature", "properties": { "name": "Station Sidi Youcef", "bus": "yes" }, "geometry": { "type": "Point", "coordinates": [ 2.96412, 36.7840499 ] } },
{ "type": "Feature", "properties": { "name": "Ecole Supérieur de Banque", "bus": "yes" }, "geometry": { "type": "Point", "coordinates": [ 2.9888552, 36.7966609 ] } },
{ "type": "Feature", "properties": { "name": "Ecole Supérieur de Banque", "bus": "yes" }, "geometry": { "type": "Point", "coordinates": [ 2.988925, 36.7969401 ] } },
{ "type": "Feature", "properties": { "name": "Stade", "bus": "yes" }, "geometry": { "type": "Point", "coordinates": [ 2.9984844, 36.7967081 ] } },
{ "type": "Feature", "properties": { "name": "Stade", "bus": "yes" }, "geometry": { "type": "Point", "coordinates": [ 2.9980767, 36.7968198 ] } },
{ "type": "Feature", "properties": { "name": "Bouskour", "bus": "yes" }, "geometry": { "type": "Point", "coordinates": [ 3.0103934, 36.7949769 ] } },
{ "type": "Feature", "properties": { "name": "Lamara", "bus": "yes" }, "geometry": { "type": "Point", "coordinates": [ 3.010667, 36.7947536 ] } },
{ "type": "Feature", "properties": { "name": "Dayra", "bus": "yes" }, "geometry": { "type": "Point", "coordinates": [ 3.0130327, 36.7921847 ] } },
{ "type": "Feature", "properties": { "name": "Dayra", "bus": "yes" }, "geometry": { "type": "Point", "coordinates": [ 3.0128986, 36.79203 ] } },
{ "type": "Feature", "properties": { "name": "Bouskour", "bus": "yes" }, "geometry": { "type": "Point", "coordinates": [ 3.007907, 36.7969766 ] } },
{ "type": "Feature", "properties": { "name": "بوسكور", "bus": "yes" }, "geometry": { "type": "Point", "coordinates": [ 3.0081725, 36.7971656 ] } },
{ "type": "Feature", "properties": { "name": "AEROPORT D'ALGER H.B", "bus": "yes" }, "geometry": { "type": "Point", "coordinates": [ 3.208677, 36.7025758 ] } },
{ "type": "Feature", "properties": { "name": "EL ALIA", "bus": "yes" }, "geometry": { "type": "Point", "coordinates": [ 3.1622547, 36.7237559 ] } },
{ "type": "Feature", "properties": { "name": "المحمدية", "bus": "yes" }, "geometry": { "type": "Point", "coordinates": [ 3.1428677, 36.7280975 ] } },
{ "type": "Feature", "properties": { "name": "5 MAISONS", "bus": "yes" }, "geometry": { "type": "Point", "coordinates": [ 3.1464511, 36.7268377 ] } },
{ "type": "Feature", "properties": { "name": "LA GLACIERE", "bus": "yes" }, "geometry": { "type": "Point", "coordinates": [ 3.1248902, 36.732686 ] } },
{ "type": "Feature", "properties": { "name": "Hussein Dey موقف حسين داي", "bus": "yes" }, "geometry": { "type": "Point", "coordinates": [ 3.1031924, 36.7435193 ] } },
{ "type": "Feature", "properties": { "name": "CARREFOUR SOUIDANI", "bus": "yes" }, "geometry": { "type": "Point", "coordinates": [ 3.0478277, 36.7526331 ] } },
{ "type": "Feature", "properties": { "name": "COLONNE VOIROLE", "bus": null }, "geometry": { "type": "Point", "coordinates": [ 3.0411445, 36.7524637 ] } },
{ "type": "Feature", "properties": { "name": null, "bus": "yes" }, "geometry": { "type": "Point", "coordinates": [ 3.0121919, 36.6548138 ] } },
{ "type": "Feature", "properties": { "name": null, "bus": "yes" }, "geometry": { "type": "Point", "coordinates": [ 3.0860849, 36.6509418 ] } },
{ "type": "Feature", "properties": { "name": null, "bus": "yes" }, "geometry": { "type": "Point", "coordinates": [ 3.0858732, 36.6555627 ] } },
{ "type": "Feature", "properties": { "name": "Tagara", "bus": "yes" }, "geometry": { "type": "Point", "coordinates": [ 3.035445, 36.7668676 ] } },
{ "type": "Feature", "properties": { "name": null, "bus": "yes" }, "geometry": { "type": "Point", "coordinates": [ 3.2001096, 36.746831 ] } },
{ "type": "Feature", "properties": { "name": "Staouali", "bus": null }, "geometry": { "type": "Point", "coordinates": [ 2.8908205, 36.7575669 ] } },
{ "type": "Feature", "properties": { "name": "Larmaf", "bus": "yes" }, "geometry": { "type": "Point", "coordinates": [ 3.0563396, 36.7882731 ] } },
{ "type": "Feature", "properties": { "name": "قهوة شرڤي", "bus": null }, "geometry": { "type": "Point", "coordinates": [ 3.2521572, 36.776202 ] } },
{ "type": "Feature", "properties": { "name": "1er Mai", "bus": "yes" }, "geometry": { "type": "Point", "coordinates": [ 3.0573535, 36.7599092 ] } },
{ "type": "Feature", "properties": { "name": "BOUROUBA (CIMETIERE)", "bus": null }, "geometry": { "type": "Point", "coordinates": [ 3.1089149, 36.715586 ] } },
{ "type": "Feature", "properties": { "name": "Station Aissat Idir", "bus": "yes" }, "geometry": { "type": "Point", "coordinates": [ 3.0616021, 36.7570157 ] } },
{ "type": "Feature", "properties": { "name": "RESIDENCE", "bus": null }, "geometry": { "type": "Point", "coordinates": [ 3.0916321, 36.7397084 ] } },
{ "type": "Feature", "properties": { "name": "Cité Mer et Soleil", "bus": "yes" }, "geometry": { "type": "Point", "coordinates": [ 3.1010668, 36.7336651 ] } },
{ "type": "Feature", "properties": { "name": "PARNET", "bus": "yes" }, "geometry": { "type": "Point", "coordinates": [ 3.1047857, 36.7329998 ] } },
{ "type": "Feature", "properties": { "name": "STATION HAI EL BADR", "bus": "yes" }, "geometry": { "type": "Point", "coordinates": [ 3.1014571, 36.7246342 ] } },
{ "type": "Feature", "properties": { "name": "LOTISSEMENT MICHEL", "bus": "yes" }, "geometry": { "type": "Point", "coordinates": [ 3.1018808, 36.7211642 ] } },
{ "type": "Feature", "properties": { "name": "STATION HAI EL BADR", "bus": "yes" }, "geometry": { "type": "Point", "coordinates": [ 3.1091657, 36.7155376 ] } },
{ "type": "Feature", "properties": { "name": "STATION HAI EL BADR", "bus": "yes" }, "geometry": { "type": "Point", "coordinates": [ 3.1012318, 36.7248642 ] } },
{ "type": "Feature", "properties": { "name": "Cite Mer Soleil", "bus": "yes" }, "geometry": { "type": "Point", "coordinates": [ 3.1008831, 36.7335759 ] } },
{ "type": "Feature", "properties": { "name": "LA REGITE", "bus": null }, "geometry": { "type": "Point", "coordinates": [ 3.0808228, 36.7475953 ] } },
{ "type": "Feature", "properties": { "name": "Carroubier Gare Routière", "bus": "yes" }, "geometry": { "type": "Point", "coordinates": [ 3.1089753, 36.7409927 ] } },
{ "type": "Feature", "properties": { "name": "Lafarge", "bus": "yes" }, "geometry": { "type": "Point", "coordinates": [ 3.0660452, 36.7562583 ] } },
{ "type": "Feature", "properties": { "name": "Station 1 mai", "bus": "yes" }, "geometry": { "type": "Point", "coordinates": [ 3.0577853, 36.7643207 ] } },
{ "type": "Feature", "properties": { "name": "Hôtel Es-Safir", "bus": "yes" }, "geometry": { "type": "Point", "coordinates": [ 3.0601852, 36.7776771 ] } },
{ "type": "Feature", "properties": { "name": "Port Saïd", "bus": "yes" }, "geometry": { "type": "Point", "coordinates": [ 3.0618677, 36.7809049 ] } },
{ "type": "Feature", "properties": { "name": "Hôtel Es-Safir", "bus": "yes" }, "geometry": { "type": "Point", "coordinates": [ 3.0603997, 36.7776762 ] } },
{ "type": "Feature", "properties": { "name": "Grand Poste", "bus": "yes" }, "geometry": { "type": "Point", "coordinates": [ 3.0607894, 36.7727121 ] } },
{ "type": "Feature", "properties": { "name": "STATION 2 MAI", "bus": "yes" }, "geometry": { "type": "Point", "coordinates": [ 3.0588032, 36.7642369 ] } },
{ "type": "Feature", "properties": { "name": "CAROUBIER - CENTRE EQUESTRE -", "bus": null }, "geometry": { "type": "Point", "coordinates": [ 3.119448, 36.7357996 ] } },
{ "type": "Feature", "properties": { "name": "Gare routière Bachdjerrah 2 -ETUSA-", "bus": null }, "geometry": { "type": "Point", "coordinates": [ 3.123765, 36.722782 ] } },
{ "type": "Feature", "properties": { "name": "Diar Djemâa", "bus": "yes" }, "geometry": { "type": "Point", "coordinates": [ 3.1285916, 36.7296205 ] } },
{ "type": "Feature", "properties": { "name": "CHÂTEAU D'EAU", "bus": null }, "geometry": { "type": "Point", "coordinates": [ 3.0723283, 36.7018124 ] } },
{ "type": "Feature", "properties": { "name": "CITE 720 LOGEMENTS 2", "bus": "yes" }, "geometry": { "type": "Point", "coordinates": [ 3.0790633, 36.7070852 ] } },
{ "type": "Feature", "properties": { "name": "AOTU.A", "bus": null }, "geometry": { "type": "Point", "coordinates": [ 3.099373, 36.714039 ] } },
{ "type": "Feature", "properties": { "name": "AIN NAADJA", "bus": null }, "geometry": { "type": "Point", "coordinates": [ 3.076825, 36.6956306 ] } },
{ "type": "Feature", "properties": { "name": "arrêt les Quatre Chemins", "bus": "yes" }, "geometry": { "type": "Point", "coordinates": [ 3.0990136, 36.7139294 ] } },
{ "type": "Feature", "properties": { "name": "arrêt les Quatre Chemins", "bus": "yes" }, "geometry": { "type": "Point", "coordinates": [ 3.0952933, 36.7138864 ] } },
{ "type": "Feature", "properties": { "name": "CITE 720 LOGEMENTS 2", "bus": null }, "geometry": { "type": "Point", "coordinates": [ 3.0789801, 36.7068293 ] } },
{ "type": "Feature", "properties": { "name": "CHÂTEAU D'EAU", "bus": null }, "geometry": { "type": "Point", "coordinates": [ 3.0725415, 36.701907 ] } },
{ "type": "Feature", "properties": { "name": "MARCHER AIN NAADJA", "bus": null }, "geometry": { "type": "Point", "coordinates": [ 3.0741334, 36.6982253 ] } },
{ "type": "Feature", "properties": { "name": "BIOTIC", "bus": null }, "geometry": { "type": "Point", "coordinates": [ 3.0907363, 36.6913861 ] } },
{ "type": "Feature", "properties": { "name": "FOYER", "bus": null }, "geometry": { "type": "Point", "coordinates": [ 3.0913156, 36.6842173 ] } },
{ "type": "Feature", "properties": { "name": "GUE DE CONSTANTINE STATION DE BUS", "bus": null }, "geometry": { "type": "Point", "coordinates": [ 3.0914336, 36.6971113 ] } },
{ "type": "Feature", "properties": { "name": "Gue de Constantine", "bus": null }, "geometry": { "type": "Point", "coordinates": [ 3.0951606, 36.698835 ] } },
{ "type": "Feature", "properties": { "name": "CITE TAHER EL AYEB", "bus": null }, "geometry": { "type": "Point", "coordinates": [ 3.0929464, 36.7026317 ] } },
{ "type": "Feature", "properties": { "name": "CITE EL HAYET", "bus": null }, "geometry": { "type": "Point", "coordinates": [ 3.0945906, 36.7051832 ] } },
{ "type": "Feature", "properties": { "name": "Bouskour", "bus": null }, "geometry": { "type": "Point", "coordinates": [ 3.0080652, 36.7971656 ] } },
{ "type": "Feature", "properties": { "name": "La cité blanche", "bus": "yes" }, "geometry": { "type": "Point", "coordinates": [ 3.0059972, 36.7961024 ] } },
{ "type": "Feature", "properties": { "name": "la city blanche", "bus": "yes" }, "geometry": { "type": "Point", "coordinates": [ 3.0040875, 36.7967425 ] } },
{ "type": "Feature", "properties": { "name": "4 Saison", "bus": "yes" }, "geometry": { "type": "Point", "coordinates": [ 3.0022663, 36.7969809 ] } },
{ "type": "Feature", "properties": { "name": "Bousmaha", "bus": null }, "geometry": { "type": "Point", "coordinates": [ 2.9947561, 36.7964697 ] } },
{ "type": "Feature", "properties": { "name": "Bousmaha", "bus": null }, "geometry": { "type": "Point", "coordinates": [ 2.9948473, 36.7966265 ] } },
{ "type": "Feature", "properties": { "name": "Echaba", "bus": null }, "geometry": { "type": "Point", "coordinates": [ 3.0058497, 36.796227 ] } },
{ "type": "Feature", "properties": { "name": "USTHB", "bus": "yes" }, "geometry": { "type": "Point", "coordinates": [ 3.1878886, 36.7152861 ] } },
{ "type": "Feature", "properties": { "name": "Rabia Tahar", "bus": null }, "geometry": { "type": "Point", "coordinates": [ 3.1767386, 36.7245987 ] } },
{ "type": "Feature", "properties": { "name": "Cercle National de l'Armée 2", "bus": null }, "geometry": { "type": "Point", "coordinates": [ 2.9861569, 36.7693206 ] } },
{ "type": "Feature", "properties": { "name": "Cercle national de l'armée", "bus": "yes" }, "geometry": { "type": "Point", "coordinates": [ 2.9923835, 36.7701102 ] } },
{ "type": "Feature", "properties": { "name": "SOUK EL FELLAH", "bus": null }, "geometry": { "type": "Point", "coordinates": [ 2.9424477, 36.7659843 ] } },
{ "type": "Feature", "properties": { "name": "Chéraga-Gare routière", "bus": "yes" }, "geometry": { "type": "Point", "coordinates": [ 2.9528256, 36.7671186 ] } },
{ "type": "Feature", "properties": { "name": "EL KARIA ( LES DUNES)", "bus": null }, "geometry": { "type": "Point", "coordinates": [ 2.9344077, 36.7584716 ] } },
{ "type": "Feature", "properties": { "name": "EL KERMA", "bus": null },